temporada,nombre_inc,rol,nompredrea,USO_TIERRA,USO,SUBUSO,ESTRUCTURA,COBERTURA,ALTURA,TIPO_FORES,SUBTIPOFOR,NOM_REG,NOM_PROV,NOM_COM,SOLICITUD,ESTAD_SOL,ANO,NOM_PREDIO,ROL_AVAL,LONG,LAT
2016-2017,TUTUVEN,436-5,,Terreno de Uso Agricola,Terrenos Agricolas,Terreno de Uso Agricola,,,,,,Region del Maule,Cauquenes,Cauquenes,NORMA DE MANEJO PINO INSIGNE,APROBADA,2017,HIJUELA NRO 3. TUTUVEN,436-5,-72.3750,-35.9086
2016-2017,VILLA FLORA,427-39,VILLA FLORA,Plantacion Adulta,Bosques,Plantacion,Adulta,No Aplica,,,,Region del Maule,Cauquenes,Cauquenes,PLAN DE MANEJO PLANTACIONES FORESTALES,REGISTRADA,2017,VILLA FLORA (HIJUELA 2 FUNDO VALDIVIA),427-39,-72.3177,-36.0303
2016-2017,LOMAS DE MACHICURA,528-19,STA JUANA,Bosque Nativo Renoval Semidenso,Bosques,Bosque Nativo,Renoval,Semidenso,< 2,Esclerofilo,Peumo-Quillay-Litre,Region del Maule,Linares,Parral,PLAN DE MANEJO PLANTACIONES FORESTALES,REGISTRADA,2017,SANTA JUANA,528-19,-71.6060,-36.2303
2016-2017,TOTORILLA,166-33,TOTORILLA PARTE,Plantacion Joven o Recien Cosechada,Bosques,Plantacion,Joven o Recien Cosechada,No Aplica,,,,Region del Maule,Curico,Vichuquen,NORMA DE MANEJO PINO INSIGNE,APROBADA,2017,LA VEGA,166-33,-71.9739,-34.8019
2016-2017,TOTORILLA,166-33,TOTORILLA PARTE,Plantacion Adulta,Bosques,Plantacion,Adulta,No Aplica,,,,Region del Maule,Curico,Vichuquen,NORMA DE MANEJO PINO INSIGNE,APROBADA,2017,LA VEGA,166-33,-71.9942,-34.8422
2016-2017,EL PERAL,511-8,EL PERAL,Plantacion Adulta,Bosques,Plantacion,Adulta,No Aplica,,,,Region del Maule,Talca,Constitucion,PLAN DE MANEJO PLANTACIONES FORESTALES,APROBADA,2017,EL PERAL,511-8,-72.4317,-35.3675
2016-2017,EL LLANO PART.,257-10,PREDIO EL LLANO COMNA SAN JAVIER,Plantacion Joven o Recien Cosechada,Bosques,Plantacion,Joven o Recien Cosechada,No Aplica,,,,Region del Maule,Linares,San Javier,PLAN DE MANEJO PLANTACIONES FORESTALES,APROBADA,2017,PURAPEL,257-10,-71.9964,-35.6506
2016-2017,VILLABORO,266-15,SAN VICENTE HUERTA DE MAULE,Bosque Nativo Renoval Semidenso,Bosques,Bosque Nativo,Renoval,Semidenso,< 2,Esclerofilo,Espino,Region del Maule,Linares,San Javier,NORMA DE MANEJO PINO INSIGNE,APROBADA,2017,EL CARMIN,266-15,-71.9550,-35.6983
2016-2017,PLACILLA// BOSQUES DE IDAHUE,160-300,HJ B LA HIGUERA PLACILLA,Plantacion Adulta,Bosques,Plantacion,Adulta,No Aplica,,,,Region del Maule,Curico,Licantue,NORMA DE MANEJO PINO INSIGNE,REGISTRADA,2017,INMUEBLE UBICADO EN PLACILLA S/N,160-300,-71.9281,-34.9891
2016-2017,LOS QUILLAYES Y LA PINA,114-56,LOS MOLINOS,Plantacion Joven o Recien Cosechada,Bosques,Plantacion,Joven o Recien Cosechada,No Aplica,,,,Region del Maule,Talca,Pencahue,NORMA DE MANEJO EUCALIPTUS,REGISTRADA,2017,LOS MOLINOS,114-56,-71.9956,-35.3431
2016-2017,LOS MOLINOS,114-56,LOS MOLINOS,Plantacion Joven o Recien Cosechada,Bosques,Plantacion,Joven o Recien Cosechada,No Aplica,,,,Region del Maule,Talca,Pencahue,NORMA DE MANEJO EUCALIPTUS,REGISTRADA,2017,LOS MOLINOS,114-56,-71.9955,-35.3404
2016-2017,QUERI,169-1,VILLA ECHA Q DE MAULE,Bosque Nativo Renoval Semidenso,Bosques,Bosque Nativo,Renoval,Semidenso,< 2,Esclerofilo,Peumo-Quillay-Litre,Region del Maule,Linares,Yerbas Buenas,PLAN DE MANEJO FORESTAL PARA PEQUENAS SUPERFICIES,APROBADA,2017,RESTO DEL FUNDO LAS GARZAS,169-1,-71.4704,-35.6100
2016-2017,LOS YUYOS,87-84,EL ASTILLERO HJ B,Plantacion Adulta,Bosques,Plantacion,Adulta,No Aplica,,,,Region del Maule,Talca,Pelarco,PLAN DE MANEJO DE CORRECCION - D.L. N 701,APROBADA,2017,ASTILLERO ALTO,87-84,-71.1994,-35.3731
2016-2017,AGUA FRIA (AMENAZA),641-16,FUNDO LAS TRANCAS,Plantacion Joven o Recien Cosechada,Bosques,Plantacion,Joven o Recien Cosechada,No Aplica,,,,Region del Maule,Curico,Molina,NORMA DE MANEJO PINO INSIGNE,REGISTRADA,2017,LAS TRANCAS,641-16,-71.0851,-35.3253
2016-2017,AGUA FRIA (PROPIO),643-1,AGUA FRIA,Bosque Nativo Renoval Denso,Bosques,Bosque Nativo,Renoval,Denso,8 - 12,Roble-Raul?â?¡-Coihue,Roble-Raul?â?¡-Coihue,Region del Maule,Curico,Molina,PLAN DE MANEJO PLANTACIONES FORESTALES,REGISTRADA,2017,HACIENDA AGUA FRIA LOTE 2,643-1,-71.0509,-35.3743
2016-2017,AGUA FRIA (PROPIO),643-1,AGUA FRIA,Plantacion Adulta,Bosques,Plantacion,Adulta,No Aplica,,,,Region del Maule,Curico,Molina,PLAN DE MANEJO PLANTACIONES FORESTALES,REGISTRADA,2017,HACIENDA AGUA FRIA LOTE 2,643-1,-71.1128,-35.3592
2016-2017,AGUA FRIA (DENTRO),643-1,AGUA FRIA,Plantacion Adulta,Bosques,Plantacion,Adulta,No Aplica,,,,Region del Maule,Curico,Molina,PLAN DE MANEJO PLANTACIONES FORESTALES,REGISTRADA,2017,HACIENDA AGUA FRIA LOTE 2,643-1,-71.0869,-35.3627
2016-2017,LOS MAITENES,27-185,PARC 34 -AB PROY PARCELACION MAITENES,Matorral Semidenso,Praderas y Matorrales,Matorral,No Aplica,Semidenso,,,,Region del Maule,Talca,R?â?¡o Claro,NORMA DE MANEJO PINO INSIGNE,REGISTRADA,2017,PARCELA 34 B P.P. UNION MAITENES,27-185,-71.1179,-35.3154
2016-2017,EL CULENAR,131-22,EL CULENAR,Bosque Nativo Renoval Semidenso,Bosques,Bosque Nativo,Renoval,Semidenso,< 2,Esclerofilo,Esclerofilo,Region del Maule,Curico,Sagrada Familia,PLAN DE MANEJO PLANTACIONES FORESTALES,REGISTRADA,2017,CERRO ALTO (LOTE 3),131-22,-71.5258,-35.2059
2016-2017,SAN VALERIANO,153-26,SAN MAURICIO,Rotacion Cultivo-Pradera,Terrenos Agricolas,Rotacion Cultivo-Pradera,,,,,,Region del Maule,Talca,San Clemente,NORMA DE MANEJO EUCALIPTUS,REGISTRADA,2017,LAS QUISCAS,153-26,-71.5066,-35.5557
2016-2017,LA PONDEROSA,8-73,HIJUELA QUINTA HACIENDA COLBUN,Bosque Nativo-Plantacion Semidenso,Bosques,Bosque Mixto,Nativo-Plantacion,Semidenso,,,,Region del Maule,Linares,Colbun,NORMA DE MANEJO PINO INSIGNE,APROBADA,2017,LA PONDEROSA,8-73,-71.3564,-35.7068
2016-2017,TOMENELO,494-108,TOMENELO,Rotacion Cultivo-Pradera,Terrenos Agricolas,Rotacion Cultivo-Pradera,,,,,,Region del Maule,Cauquenes,Cauquenes,NORMA DE MANEJO EUCALIPTUS,REGISTRADA,2017,HIJUELA NRO 3 DEL FUNDO TOMENELO,494-108,-72.1791,-36.0299
2016-2017,LAS MARGARITAS,244-59,VILLA CRISTINA,Rotacion Cultivo-Pradera,Terrenos Agricolas,Rotacion Cultivo-Pradera,,,,,,Region del Maule,Cauquenes,Chanco,PLAN DE MANEJO PLANTACIONES FORESTALES,REGISTRADA,2017,PUQUILIRQUE (LOTES B-1 Y B-2),244-59,-72.5187,-35.7651
2016-2017,LA HIGUERA // SANTA ELENA,449-10,LT 1 STA DOLORES,Matorral Semidenso,Praderas y Matorrales,Matorral,No Aplica,Semidenso,,,,Region del Maule,Cauquenes,Cauquenes,PLAN DE MANEJO PLANTACIONES FORESTALES,REGISTRADA,2017,SANTA DOLORES,449-10,-72.2358,-35.8564
2016-2017,QUELLA,174-40,LA ORILLA,Matorral Arborescente Abierto,Praderas y Matorrales,Matorral Arborescente,No Aplica,Abierto,,,,Region del Maule,Talca,Curepto,NORMA DE MANEJO EUCALIPTUS,REGISTRADA,2017,UNA PROPIEDAD,174-40,-72.0789,-35.0597
2016-2017,LA QUIRIGUA,165-24,LA QUIRIGUA,Plantacion Adulta,Bosques,Plantacion,Adulta,No Aplica,,,,Region del Maule,Curico,Vichuquen,PLAN DE MANEJO PLANTACIONES FORESTALES,APROBADA,2017,LA QUIRIGUA,165-24,-72.0148,-34.7834
2016-2017,AQUELARRE,144-24,PINARES DEL LAGO VICHUQ,Plantacion Joven o Recien Cosechada,Bosques,Plantacion,Joven o Recien Cosechada,No Aplica,,,,Region del Maule,Curico,Vichuquen,NORMA DE MANEJO EUCALIPTUS,REGISTRADA,2017,PINARES DEL LAGO VICHUQUEN,144-24,-72.0375,-34.8575
2016-2017,LOS LITRES,478-25,EL QUILLAY,Plantacion Adulta,Bosques,Plantacion,Adulta,No Aplica,,,,Region del Maule,Talca,Constitucion,PLAN DE MANEJO PLANTACIONES FORESTALES,REGISTRADA,2017,HIJUELA 2 LOTE B,478-25,-72.4399,-35.4319
2016-2017,SAN IGNACIO-N,445-97,PORVENIR LOTE 3,Bosque Nativo con Exoticas Asilvestradas Semidenso,Bosques,Bosque Mixto,Nativo con Exoticas Asilvestradas,Semidenso,,,,Region del Maule,Cauquenes,Cauquenes,NORMA DE MANEJO PINO INSIGNE,REGISTRADA,2016,PORVENIR LOTE 3,445-97,-72.2603,-35.7581
2016-2017,ARBOLILLO,272-96,EL ARBOLILLO,Rotacion Cultivo-Pradera,Terrenos Agricolas,Rotacion Cultivo-Pradera,,,,,,Region del Maule,Linares,San Javier,NORMA DE MANEJO PINO INSIGNE,REGISTRADA,2016,LOTE 4,272-96,-71.9014,-35.7842
2016-2017,LA JUNTA,155-18,LAS CASA CAMINO A MERHUEVES,Plantacion con Exoticas Asilvestradas,Bosques,Plantacion,con Exoticas Asilvestradas,No Aplica,,,,Region del Maule,Curico,Vichuquen,NORMA DE MANEJO PINO INSIGNE,REGISTRADA,2016,EL PERAL,155-18,-72.0903,-34.8189
2016-2017,SIERRA ALEGRE,151-14,SIERRA ALEGRE,Plantacion Adulta,Bosques,Plantacion,Adulta,No Aplica,,,,Region del Maule,Talca,Empedrado,NORMA DE MANEJO EUCALIPTUS,REGISTRADA,2016,LOTE NUMERO B SIERRA ALEGRE,151-14,-72.3147,-35.5947
2016-2017,EL NARANJO AVILES,539-60,CHEQUENLEMU RSVA 1 3 O S,Plantacion Adulta,Bosques,Plantacion,Adulta,No Aplica,,,,Region del Maule,Curico,Curico,NORMA DE MANEJO PINO INSIGNE,REGISTRADA,2016,R.C. NRO 1 TERCER SECTOR P.P. CHEQUENLEMU,539-60,-71.0853,-35.0981
2016-2017,ESCUDO,67-6,HIJUELA A FUNDO EL ESCUDO,Bosque Nativo Renoval Semidenso,Bosques,Bosque Nativo,Renoval,Semidenso,4 - 8,Esclerofilo,Peumo-Quillay-Litre,Region del Maule,Curico,Teno,NORMA DE MANEJO EUCALIPTUS,REGISTRADA,2016,HIJUELA A FUNDO EL ESCUDO,67-6,-70.9819,-34.8898
2016-2017,PUNTA DE ROSA,140-105,HIJUELA N 2 FDO. PUNTA DE ROSA,Bosque Nativo Renoval Semidenso,Bosques,Bosque Nativo,Renoval,Semidenso,2 - 4,Esclerofilo,Peumo-Quillay-Litre,Region del Maule,Curico,Sagrada Familia,PLAN DE MANEJO FORESTAL DE BOSQUE NATIVO,APROBADA,2016,LA VINA - RESERVA,140-105,-71.5192,-35.0500
2016-2017,PEDERNALES,490-12,CALIBORO HIJUELA 8,Matorral Semidenso,Praderas y Matorrales,Matorral,No Aplica,Semidenso,,,,Region del Maule,Cauquenes,Cauquenes,PLAN DE MANEJO PLANTACIONES FORESTALES,REGISTRADA,2016,HIJUELA 9,490-12,-72.1526,-35.9049
2016-2017,QUILHUINE,253-4,LOS HUAYES,Rotacion Cultivo-Pradera,Terrenos Agricolas,Rotacion Cultivo-Pradera,,,,,,Region del Maule,Cauquenes,Chanco,PLAN DE MANEJO PLANTACIONES FORESTALES,APROBADA,2016,LOS HUAYES,253-4,-72.5274,-35.5935
2016-2017,PUPILLA//LOS CRUCEROS,169-32,VALLE ESCONDIDO,Bosque Nativo con Exoticas Asilvestradas Abierto,Bosques,Bosque Mixto,Nativo con Exoticas Asilvestradas,Abierto,,,,Region del Maule,Talca,Curepto,NORMA DE MANEJO PINO INSIGNE,REGISTRADA,2016,VALLE ESCONDIDO,169-32,-72.0547,-35.2319
2016-2017,LA MINA,170-15,LA MINA,Matorral Arborescente Abierto,Praderas y Matorrales,Matorral Arborescente,No Aplica,Abierto,,,,Region del Maule,Talca,San Clemente,NORMA DE MANEJO PINO INSIGNE,REGISTRADA,2015,POTRERO RAMIREZ,170-15,-70.8025,-35.8247
2016-2017,TILICURA,134-12,RESTO LT A LA QUESERIA,Plantacion Adulta,Bosques,Plantacion,Adulta,No Aplica,,,,Region del Maule,Curico,Vichuquen,NORMA DE MANEJO PINO INSIGNE,REGISTRADA,2015,LA QUESERIA - HIJUELA A,134-12,-71.9478,-34.8531
2016-2017,MAULE,165-26,FDO LA MISERIA HJ A,Rotacion Cultivo-Pradera,Terrenos Agricolas,Rotacion Cultivo-Pradera,,,,,,Region del Maule,Talca,Maule,PLAN DE MANEJO PLANTACIONES FORESTALES,REGISTRADA,2015,TOBUCO,165-26,-71.7064,-35.4555
2016-2017,SAN JUAN DE LOS OLIVOS,151-55,EL GUANACO,Plantacion con Exoticas Asilvestradas,Bosques,Plantacion,con Exoticas Asilvestradas,No Aplica,,,,Region del Maule,Talca,Curepto,NORMA DE MANEJO EUCALIPTUS,REGISTRADA,2015,EL GUANACO,151-55,-72.0252,-35.1199
2016-2017,LA QUESER?ìA,269-4,LOS CAMACHOS,Plantacion Adulta,Bosques,Plantacion,Adulta,No Aplica,,,,Region del Maule,Curico,Vichuquen,NORMA DE MANEJO PINO INSIGNE,REGISTRADA,2015,HIJUELA NRO 24 LLONGOCURA,269-4,-71.9689,-34.8835
2016-2017,TALPEN RESTO LOTE A,322-14,FUNDO TALPEN,Bosque Nativo Renoval Semidenso,Bosques,Bosque Nativo,Renoval,Semidenso,4 - 8,Esclerofilo,Peumo-Quillay-Litre,Region del Maule,Talca,Constitucion,PLAN DE MANEJO PLANTACIONES FORESTALES,REGISTRADA,2015,TALPEN RESTO LOTE A,322-14,-72.2739,-35.2444
2016-2017,EL PARRON SECTOR 2,471-14,FUNDO EL PARRON,Plantacion Adulta,Bosques,Plantacion,Adulta,No Aplica,,,,Region del Maule,Talca,Constitucion,PLAN DE MANEJO PLANTACIONES FORESTALES,APROBADA,2015,EL PARRON SECTOR 2,471-14,-72.5350,-35.5289
2016-2017,EL PARRON SECTOR 2,471-14,FUNDO EL PARRON,Plantacion Adulta,Bosques,Plantacion,Adulta,No Aplica,,,,Region del Maule,Talca,Constitucion,PLAN DE MANEJO PLANTACIONES FORESTALES,APROBADA,2015,EL PARRON SECTOR 2,471-14,-72.5308,-35.5283
2016-2017,EL PARRON SECTOR 2,471-14,FUNDO EL PARRON,Plantacion Joven o Recien Cosechada,Bosques,Plantacion,Joven o Recien Cosechada,No Aplica,,,,Region del Maule,Talca,Constitucion,PLAN DE MANEJO PLANTACIONES FORESTALES,APROBADA,2015,EL PARRON SECTOR 2,471-14,-72.5122,-35.5142
2016-2017,PELLINES 1,471-14,FUNDO EL PARRON,Plantacion Joven o Recien Cosechada,Bosques,Plantacion,Joven o Recien Cosechada,No Aplica,,,,Region del Maule,Talca,Constitucion,PLAN DE MANEJO PLANTACIONES FORESTALES,APROBADA,2015,EL PARRON SECTOR 2,471-14,-72.5258,-35.5130
2016-2017,SANTA ELENA,229-2,SANTA ELENA,Bosque Nativo Renoval Semidenso,Bosques,Bosque Nativo,Renoval,Semidenso,2 - 4,Esclerofilo,Peumo-Quillay-Litre,Region del Maule,Linares,San Javier,PLAN DE MANEJO PLANTACIONES FORESTALES,REGISTRADA,2015,SANTA ELENA,229-2,-71.9172,-35.6683
2016-2017,SANTA ELENA,73-39,PARCELA N 58 SAN CRISTOBAL ST 1,Plantacion Adulta,Bosques,Plantacion,Adulta,No Aplica,,,,Region del Maule,Curico,Teno,NORMA DE MANEJO EUCALIPTUS,REGISTRADA,2015,PARCELA NRO 58 P.P. SAN CRISTOBAL,73-39,-71.1290,-34.8739
2016-2017,LAS RA?ìCES,446-33,SN VENANCIO,Plantacion Adulta,Bosques,Plantacion,Adulta,No Aplica,,,,Region del Maule,Cauquenes,Cauquenes,PLAN DE MANEJO PLANTACIONES FORESTALES,APROBADA,2015,SAN VENANCIO,446-33,-72.3085,-35.8181
2016-2017,EL PARAISO,412-28,LA DESDENADA,Bosque Nativo Renoval Semidenso,Bosques,Bosque Nativo,Renoval,Semidenso,< 2,Esclerofilo,Espino,Region del Maule,Cauquenes,Cauquenes,NORMA DE MANEJO EUCALIPTUS,REGISTRADA,2015,CANETE,412-28,-72.3065,-35.9021
2016-2017,PANTANILLOS,443-49,PANTANILLOS,Plantacion Adulta,Bosques,Plantacion,Adulta,No Aplica,,,,Region del Maule,Talca,Constitucion,NORMA DE MANEJO PINO INSIGNE,REGISTRADA,2015,PANTANILLOS,443-49,-72.2932,-35.4533
2016-2017,HUAPI BAJO,RIO ANCOA,,Matorral Arborescente Abierto,Praderas y Matorrales,Matorral Arborescente,No Aplica,Abierto,,,,Region del Maule,Linares,Linares,,,0,,,-71.5988,-35.8750
2016-2017,HUAPI BAJO,506-33,EL BOSQUE PC 9,Matorral Abierto,Praderas y Matorrales,Matorral,No Aplica,Abierto,,,,Region del Maule,Linares,Linares,,,0,,,-71.6121,-35.8716
2016-2017,EL GUAPI,506-33,EL BOSQUE PC 9,Matorral Abierto,Praderas y Matorrales,Matorral,No Aplica,Abierto,,,,Region del Maule,Linares,Linares,,,0,,,-71.6128,-35.8744
2016-2017,TALHUENES,477-6,,Matorral Arborescente Abierto,Praderas y Matorrales,Matorral Arborescente,No Aplica,Abierto,,,,Region del Maule,Linares,Retiro,,,0,,,-71.9788,-35.8465
2016-2017,CAPELLANIA ROKI,477-8,STA MAGDALENA,Matorral Semidenso,Praderas y Matorrales,Matorral,No Aplica,Semidenso,,,,Region del Maule,Linares,Retiro,,,0,,,-71.9843,-35.8463
2016-2017,PLAZOLETA OSORES,VP-F,,Plantacion Adulta,Bosques,Plantacion,Adulta,No Aplica,,,,Region del Maule,Cauquenes,Cauquenes,,,0,,,-72.4942,-35.9661
2016-2017,EL TROZO BENAVENTE,VP-F,,Plantacion Adulta,Bosques,Plantacion,Adulta,No Aplica,,,,Region del Maule,Cauquenes,Cauquenes,,,0,,,-72.5500,-35.9647
2016-2017,SAN JAVIER,VP-F,,Terreno de Uso Agricola,Terrenos Agricolas,Terreno de Uso Agricola,,,,,,Region del Maule,Cauquenes,Cauquenes,,,0,,,-72.4172,-35.9231
2016-2017,SAN JAVIER,VP-F,,Bosque Nativo-Plantacion Semidenso,Bosques,Bosque Mixto,Nativo-Plantacion,Semidenso,,,,Region del Maule,Cauquenes,Cauquenes,,,0,,,-72.4272,-35.9200
2016-2017,CURIMAQUI-2 (AMENAZA),529-1,HUERTECILLA HIJ 3,Bosque Nativo Renoval Semidenso,Bosques,Bosque Nativo,Renoval,Semidenso,< 2,Esclerofilo,Peumo-Quillay-Litre,Region del Maule,Cauquenes,Cauquenes,,,0,,,-72.3938,-36.1694
2016-2017,SAN ESTEBAN,435-22,N FRANCISCO,Plantacion Adulta,Bosques,Plantacion,Adulta,No Aplica,,,,Region del Maule,Cauquenes,Cauquenes,,,0,,,-72.3858,-35.8819
2016-2017,SAN ESTEBAN,435-30,EL ROBLE PC 7,Terreno de Uso Agricola,Terrenos Agricolas,Terreno de Uso Agricola,,,,,,Region del Maule,Cauquenes,Cauquenes,,,0,,,-72.3868,-35.8897
2016-2017,SAUZAL// CAMARICO ACEVEDO,410-8,AGUA FRIA,Plantacion Adulta,Bosques,Plantacion,Adulta,No Aplica,,,,Region del Maule,Cauquenes,Cauquenes,,,0,,,-72.2131,-35.9075
2016-2017,CULENCO GUTIERREZ CONV.2017,491-8,EL TRANSITO,Plantacion Adulta,Bosques,Plantacion,Adulta,No Aplica,,,,Region del Maule,Cauquenes,Cauquenes,,,0,,,-72.1892,-35.9311
2016-2017,EL OLVIDO,439-43,VILLA ESTELA,Matorral Arborescente Abierto,Praderas y Matorrales,Matorral Arborescente,No Aplica,Abierto,,,,Region del Maule,Cauquenes,Cauquenes,,,0,,,-72.4240,-35.9414
2016-2017,PILEN II,439-43,VILLA ESTELA,Rotacion Cultivo-Pradera,Terrenos Agricolas,Rotacion Cultivo-Pradera,,,,,,Region del Maule,Cauquenes,Cauquenes,,,0,,,-72.4205,-35.9439
2016-2017,M-830,429-1,ALDEA DE PILEN,Plantacion Joven o Recien Cosechada,Bosques,Plantacion,Joven o Recien Cosechada,No Aplica,,,,Region del Maule,Cauquenes,Cauquenes,,,0,,,-72.4081,-35.9632
2016-2017,PILEN,429-1,ALDEA DE PILEN,Terreno de Uso Agricola,Terrenos Agricolas,Terreno de Uso Agricola,,,,,,Region del Maule,Cauquenes,Cauquenes,,,0,,,-72.4176,-35.9564
2016-2017,LO CAROLINA,424-15,LO CAROLINA,Plantacion Adulta,Bosques,Plantacion,Adulta,No Aplica,,,,Region del Maule,Cauquenes,Cauquenes,,,0,,,-72.3028,-36.0297
2016-2017,SAN NICOLAS CONV.2021,487-52,HIJUELA SAN JORGE,Plantacion Adulta,Bosques,Plantacion,Adulta,No Aplica,,,,Region del Maule,Cauquenes,Cauquenes,,,0,,,-72.0751,-35.8294
2016-2017,LAS HIGUERAS,RIO TUTUVEN,,Rios,Cuerpos de Agua,Rios,,,,,,Region del Maule,Cauquenes,Cauquenes,,,0,,,-72.3078,-35.9606
2016-2017,EL CERRO-N,485-27,STA AMELIA,Matorral Semidenso,Praderas y Matorrales,Matorral,No Aplica,Semidenso,,,,Region del Maule,Cauquenes,Cauquenes,,,0,,,-72.0293,-35.8087
2016-2017,SAN ESTEBAN,435-34,STA CECILIA,Ciudades. Pueblos. Zonas Industriales,Areas Urbanas e Industriales,Ciudades. Pueblos. Zonas Industriales,,,,,,Region del Maule,Cauquenes,Cauquenes,,,0,,,-72.3831,-35.8864
2016-2017,EL EMBUDO,RUTA-126-N,,Matorral Abierto,Praderas y Matorrales,Matorral,No Aplica,Abierto,,,,Region del Maule,Cauquenes,Cauquenes,,,0,,,-72.1031,-35.8758
2016-2017,EL DURAZNO,VP-RRR,,Plantacion Adulta,Bosques,Plantacion,Adulta,No Aplica,,,,Region del Maule,Cauquenes,Cauquenes,,,0,,,-72.3992,-35.9028
2016-2017,LOMAS DE MACHICURA,528-42,,Plantacion Adulta,Bosques,Plantacion,Adulta,No Aplica,,,,Region del Maule,Linares,Parral,,,0,,,-71.6131,-36.2364
2016-2017,AJIAL VALDIVIESO,214-8,SN PABLO,Rotacion Cultivo-Pradera,Terrenos Agricolas,Rotacion Cultivo-Pradera,,,,,,Region del Maule,Linares,Parral,,,0,,,-71.7809,-36.1530
2016-2017,ISLA DE PENCAHUE,1253-15,,Rotacion Cultivo-Pradera,Terrenos Agricolas,Rotacion Cultivo-Pradera,,,,,,Region del Maule,Linares,Parral,,,0,,,-71.7822,-36.2931
2016-2017,CIENAGA COPIHUE,1252-180,PARCELA N 15 LA GLORIA,Rotacion Cultivo-Pradera,Terrenos Agricolas,Rotacion Cultivo-Pradera,,,,,,Region del Maule,Linares,Parral,,,0,,,-71.8489,-36.0661
2016-2017,CI?ëNAGO,1252-202,PARCELA 1 LA GLORIA,Rotacion Cultivo-Pradera,Terrenos Agricolas,Rotacion Cultivo-Pradera,,,,,,Region del Maule,Linares,Parral,,,0,,,-71.8368,-36.0817
2016-2017,BUENOS AIRES,213-6,PALEMO,Rotacion Cultivo-Pradera,Terrenos Agricolas,Rotacion Cultivo-Pradera,,,,,,Region del Maule,Linares,Parral,,,0,,,-71.8138,-36.1218
2016-2017,RECINTO MEDIA LUNA,1252-20,FUNDO EL CARMEN,Rotacion Cultivo-Pradera,Terrenos Agricolas,Rotacion Cultivo-Pradera,,,,,,Region del Maule,Linares,Parral,,,0,,,-71.8330,-36.1286
2016-2017,BUENOS AIRES,1252-20,FUNDO EL CARMEN,Rotacion Cultivo-Pradera,Terrenos Agricolas,Rotacion Cultivo-Pradera,,,,,,Region del Maule,Linares,Parral,,,0,,,-71.8253,-36.1299
2016-2017,PUENTE CANAL SANTA MONICA,837-16,SAN AGUSTIN,Rotacion Cultivo-Pradera,Terrenos Agricolas,Rotacion Cultivo-Pradera,,,,,,Region del Maule,Linares,Parral,,,0,,,-71.8246,-36.2009
2016-2017,LOMAS DE MACHICURA//LAGUNA DEL CORDERO,528-11,,Plantacion Adulta,Bosques,Plantacion,Adulta,No Aplica,,,,Region del Maule,Linares,Parral,,,0,,,-71.6136,-36.2349
2016-2017,RENAICO,942-3,SANTO DOMINGO FDO GALPON GUERRERO,Rotacion Cultivo-Pradera,Terrenos Agricolas,Rotacion Cultivo-Pradera,,,,,,Region del Maule,Linares,Parral,,,0,,,-71.9067,-36.2468
2016-2017,PORVENIR AMENAZA (CORR 24),VP-E,,Plantacion Joven o Recien Cosechada,Bosques,Plantacion,Joven o Recien Cosechada,No Aplica,,,,Region del Maule,Linares,Parral,,,0,,,-71.6269,-36.2403
2016-2017,PORVENIR AMENAZA (CORR 23),VP-E,,Plantacion con Exoticas Asilvestradas,Bosques,Plantacion,con Exoticas Asilvestradas,No Aplica,,,,Region del Maule,Linares,Parral,,,0,,,-71.6267,-36.2397
2016-2017,LOMAS DE MACHICURA,528-17,EL CARMEN,Matorral Arborescente Denso,Praderas y Matorrales,Matorral Arborescente,No Aplica,Denso,,,,Region del Maule,Linares,Parral,,,0,,,-71.6214,-36.2392
2016-2017,SANTA MAR?ìA,942-35,PENAFLOR,Rotacion Cultivo-Pradera,Terrenos Agricolas,Rotacion Cultivo-Pradera,,,,,,Region del Maule,Linares,Parral,,,0,,,-71.8817,-36.2314
2016-2017,LA ISLA PERQUILAUQU?ëN,838-24,SAN JOSE PERQUILAUQUEN,Rotacion Cultivo-Pradera,Terrenos Agricolas,Rotacion Cultivo-Pradera,,,,,,Region del Maule,Linares,Parral,,,0,,,-71.8383,-36.2503
2016-2017,REMULCAO,732-108,REMULCAO,Rotacion Cultivo-Pradera,Terrenos Agricolas,Rotacion Cultivo-Pradera,,,,,,Region del Maule,Linares,Parral,,,0,,,-71.7142,-36.2570
2016-2017,ZEMITA VII,735-43,HUENUTIL HIJUELA 2,Plantacion Adulta,Bosques,Plantacion,Adulta,No Aplica,,,,Region del Maule,Linares,Parral,,,0,,,-71.6938,-36.3427
2016-2017,RETULEMUS,405-9,BOMBERO VENEGAS 850,Terreno de Uso Agricola,Terrenos Agricolas,Terreno de Uso Agricola,,,,,,Region del Maule,Cauquenes,Cauquenes,,,0,,,-72.3215,-35.9621
2016-2017,LA MONTANA PARADA,VP-G,,Plantacion Adulta,Bosques,Plantacion,Adulta,No Aplica,,,,Region del Maule,Cauquenes,Chanco,,,0,,,-72.4742,-35.8158
2016-2017,SAN RAMON,519-94,PARCELA N 40 HUIMEO,Matorral Abierto,Praderas y Matorrales,Matorral,No Aplica,Abierto,,,,Region del Maule,Linares,Longavi,,,0,,,-71.7599,-35.8312
2016-2017,LA AGUADA,515-42,BODEGA PC 60,Terreno de Uso Agricola,Terrenos Agricolas,Terreno de Uso Agricola,,,,,,Region del Maule,Linares,Longavi,,,0,,,-71.7300,-35.8861
2016-2017,HUIMEO,519-66,HUIMEO PARCELA 12,Rotacion Cultivo-Pradera,Terrenos Agricolas,Rotacion Cultivo-Pradera,,,,,,Region del Maule,Linares,Longavi,,,0,,,-71.7358,-35.8289
2016-2017,PASO CU?æAO,516-54,,Terreno de Uso Agricola,Terrenos Agricolas,Terreno de Uso Agricola,,,,,,Region del Maule,Linares,Longavi,,,0,,,-71.7270,-35.8958
2016-2017,CERRILLO,518-18,CASAS DE CERRILLOS,Terreno de Uso Agricola,Terrenos Agricolas,Terreno de Uso Agricola,,,,,,Region del Maule,Linares,Longavi,,,0,,,-71.7186,-35.9231
2016-2017,LOMAS DE LA TERCERA,197-359,RESERVA 03 LA TERCERA,Matorral Denso,Praderas y Matorrales,Matorral,No Aplica,Denso,,,,Region del Maule,Linares,Longavi,,,0,,,-71.6472,-36.0789
2016-2017,LA SEXTA,202-263,SN JOSE PC 09 ST 04,Matorral Arborescente Abierto,Praderas y Matorrales,Matorral Arborescente,No Aplica,Abierto,,,,Region del Maule,Linares,Longavi,,,0,,,-71.5976,-36.1402
2016-2017,LA ISLA-RIO ACHIBUENO,RIO ACHIBUENO,,Plantacion con Exoticas Asilvestradas,Bosques,Plantacion,con Exoticas Asilvestradas,No Aplica,,,,Region del Maule,Linares,Linares,,,0,,,-71.7626,-35.8034
2016-2017,CERRO PALHUA,269-133,C DE LEON LT F,Matorral Denso,Praderas y Matorrales,Matorral,No Aplica,Denso,,,,Region del Maule,Linares,San Javier,,,0,,,-71.8878,-35.7467
2016-2017,SAN AGUSTIN LOTE 1 Y 2 PART.,264-10,EL HOYO,Matorral Abierto,Praderas y Matorrales,Matorral,No Aplica,Abierto,,,,Region del Maule,Linares,San Javier,,,0,,,-71.9683,-35.7542
2016-2017,CALIBORO,274-2,CALIBORO R C 13,Plantacion con Exoticas Asilvestradas,Bosques,Plantacion,con Exoticas Asilvestradas,No Aplica,,,,Region del Maule,Linares,San Javier,,,0,,,-71.8531,-35.8403
2016-2017,CU?æAO,460-275,STA LUISA PC 29,Plantacion con Exoticas Asilvestradas,Bosques,Plantacion,con Exoticas Asilvestradas,No Aplica,,,,Region del Maule,Linares,Retiro,,,0,,,-71.7362,-35.9391
2016-2017,CURA CURA,490-28,CURA CURA HIJ 2,Rotacion Cultivo-Pradera,Terrenos Agricolas,Rotacion Cultivo-Pradera,,,,,,Region del Maule,Linares,Retiro,,,0,,,-71.9064,-35.9342
2016-2017,EL TORREON,VP-D,,Matorral Semidenso,Praderas y Matorrales,Matorral,No Aplica,Semidenso,,,,Region del Maule,Cauquenes,Pelluhue,,,0,,,-72.5940,-35.8227
2016-2017,LAS RAICES CANELILLOS,VP-AAA,,Plantacion Adulta,Bosques,Plantacion,Adulta,No Aplica,,,,Region del Maule,Cauquenes,Pelluhue,,,0,,,-72.6581,-35.9567
2016-2017,QUILICURA // LOS QUEULES,VP-T,,Plantacion Adulta,Bosques,Plantacion,Adulta,No Aplica,,,,Region del Maule,Cauquenes,Pelluhue,,,0,,,-72.6776,-35.9392
2016-2017,QUEBRADA EL GATO,VP-L,,Rotacion Cultivo-Pradera,Terrenos Agricolas,Rotacion Cultivo-Pradera,,,,,,Region del Maule,Cauquenes,Pelluhue,,,0,,,-72.6313,-35.9233
2016-2017,CU?æAO,460-271,SANTA LUISA PC 30 ST 20,Rotacion Cultivo-Pradera,Terrenos Agricolas,Rotacion Cultivo-Pradera,,,,,,Region del Maule,Linares,Retiro,,,0,,,-71.7365,-35.9314
2016-2017,CARDO VERDE,486-8,FUNDO EL RETIRO,Plantacion Joven o Recien Cosechada,Bosques,Plantacion,Joven o Recien Cosechada,No Aplica,,,,Region del Maule,Linares,Retiro,,,0,,,-71.9703,-35.9803
2016-2017,VILLASECA,460-48,LA GRANJA PARCELA 44,Rotacion Cultivo-Pradera,Terrenos Agricolas,Rotacion Cultivo-Pradera,,,,,,Region del Maule,Linares,Retiro,,,0,,,-71.7676,-35.9956
2016-2017,EL ?üLAMO,451-13,FUNDO COPIHUE,Plantacion Adulta,Bosques,Plantacion,Adulta,No Aplica,,,,Region del Maule,Linares,Retiro,,,0,,,-71.7803,-36.0853
2016-2017,LLANQUIRAY (AMENAZA),465-16,PREDIO EL TRANSITO,Rotacion Cultivo-Pradera,Terrenos Agricolas,Rotacion Cultivo-Pradera,,,,,,Region del Maule,Linares,Retiro,,,0,,,-71.9844,-35.9944
2016-2017,SAN IGNACIO,460-132,EL MEMBRILLO PC 43,Terreno de Uso Agricola,Terrenos Agricolas,Terreno de Uso Agricola,,,,,,Region del Maule,Linares,Retiro,,,0,,,-71.8047,-36.0487
2016-2017,SAN IGNACIO,460-130,PP EL MEMBRILLO PC 16 ST 30,Terreno de Uso Agricola,Terrenos Agricolas,Terreno de Uso Agricola,,,,,,Region del Maule,Linares,Retiro,,,0,,,-71.8122,-36.0549
2016-2017,EL MEMBRILLO,460-159,EL MEMBRILLO PC 12,Terreno de Uso Agricola,Terrenos Agricolas,Terreno de Uso Agricola,,,,,,Region del Maule,Linares,Retiro,,,0,,,-71.8033,-36.0656
2016-2017,SANTA ISABEL DE LOS ROBLES,451-226,STA ISABEL PC 101,Rotacion Cultivo-Pradera,Terrenos Agricolas,Rotacion Cultivo-Pradera,,,,,,Region del Maule,Linares,Retiro,,,0,,,-71.7592,-36.1002
2016-2017,EL MEMBRILLO 2,SR,,Terreno de Uso Agricola,Terrenos Agricolas,Terreno de Uso Agricola,,,,,,Region del Maule,Linares,Retiro,,,0,,,-71.7947,-36.0831
2016-2017,MONTE VERDE,464-16,COLIGUAY COPIHUE,Rotacion Cultivo-Pradera,Terrenos Agricolas,Rotacion Cultivo-Pradera,,,,,,Region del Maule,Linares,Retiro,,,0,,,-71.8066,-36.0974
2016-2017,SANTA DELFINA,451-290,PARCELA 21 SITIO 11 LOS ROBLES,Rotacion Cultivo-Pradera,Terrenos Agricolas,Rotacion Cultivo-Pradera,,,,,,Region del Maule,Linares,Retiro,,,0,,,-71.6896,-36.1351
2016-2017,LOS MOGOTES,555-19,LOS PERALES LOS MOGOTES,Bosque Nativo Renoval Semidenso,Bosques,Bosque Nativo,Renoval,Semidenso,2 - 4,Cipr?â?®s de la Cordillera,Cipr?â?®s de la Cordillera,Region del Maule,Linares,Linares,,,0,,,-71.4385,-35.9614
2016-2017,LLEPO,557-37,LA PENA LT A,Bosque Nativo Renoval Denso,Bosques,Bosque Nativo,Renoval,Denso,2 - 4,Esclerofilo,Peumo-Quillay-Litre,Region del Maule,Linares,Linares,,,0,,,-71.4847,-35.9453
2016-2017,LOS COPIHUES,554-29,JUAN AMIGO,Bosque Nativo Renoval Semidenso,Bosques,Bosque Nativo,Renoval,Semidenso,< 2,Esclerofilo,Peumo-Quillay-Litre,Region del Maule,Linares,Linares,,,0,,,-71.3132,-36.1637
2016-2017,CAJON DE PEJERREYES,VP-H,,Bosque Nativo Renoval Denso,Bosques,Bosque Nativo,Renoval,Denso,12 - 20,Roble-Raul?â?¡-Coihue,Roble,Region del Maule,Linares,Linares,,,0,,,-71.2658,-36.0511
2016-2017,CHUPALLAR,553-96,EL LAUREL,Afloramientos Rocosos,Areas Desprovistas de Vegetaci?â,Afloramientos Rocosos,,,,,,Region del Maule,Linares,Linares,,,0,,,-71.2000,-35.8760
2016-2017,LOMAS DE POLCURA DENTRO (CORR 7),195-378,LOMAS DE POLCURA,Plantacion Joven o Recien Cosechada,Bosques,Plantacion,Joven o Recien Cosechada,No Aplica,,,,Region del Maule,Linares,Longavi,,,0,,,-71.5122,-36.0086
2016-2017,RARI,28-51,SANTA ESTER,Bosque Nativo Renoval Semidenso,Bosques,Bosque Nativo,Renoval,Semidenso,8 - 12,Roble-Hualo,Roble-Hualo,Region del Maule,Linares,Colbun,,,0,,,-71.4026,-35.8025
2016-2017,LOMAS DE PUTAG?üN,29-14,EL MOLINO,Terreno de Uso Agricola,Terrenos Agricolas,Terreno de Uso Agricola,,,,,,Region del Maule,Linares,Colbun,,,0,,,-71.4425,-35.8267
2016-2017,QUEBRADA TIERRA CAFE,29-92,LOMAS DE PUTAGAN,Bosque Nativo Renoval Denso,Bosques,Bosque Nativo,Renoval,Denso,4 - 8,Roble-Hualo,Roble-Hualo,Region del Maule,Linares,Linares,,,0,,,-71.3903,-35.8663
2016-2017,ORILLA DE NAVARRO,137-39,,Matorral-Pradera Abierto,Praderas y Matorrales,Matorral-Pradera,No Aplica,Abierto,,,,Region del Maule,Curico,Hualañe,,,0,,,-71.5978,-35.0483
2016-2017,ESPINALILLO,174-236,,Terreno de Uso Agricola,Terrenos Agricolas,Terreno de Uso Agricola,,,,,,Region del Maule,Curico,Hualañe,,,0,,,-71.8526,-34.8688
2016-2017,ORILLA DE NAVARRO,137-34,ORILLA DE NAVARRO,Matorral-Pradera Abierto,Praderas y Matorrales,Matorral-Pradera,No Aplica,Abierto,,,,Region del Maule,Curico,Hualañe,,,0,,,-71.5956,-35.0481
2016-2017,MIRARIO,160-20,FUNDO MIRA RIO,Matorral Arborescente Denso,Praderas y Matorrales,Matorral Arborescente,No Aplica,Denso,,,,Region del Maule,Curico,Hualañe,,,0,,,-71.7550,-34.9833
2016-2017,LAS VI?æAS DE PERALILLO,160-55,PC 43 PP PERALILLO,Rotacion Cultivo-Pradera,Terrenos Agricolas,Rotacion Cultivo-Pradera,,,,,,Region del Maule,Curico,Hualañe,,,0,,,-71.6983,-35.0111
2016-2017,HIJ.PONIENTE,VP-V,,Matorral Arborescente Abierto,Praderas y Matorrales,Matorral Arborescente,No Aplica,Abierto,,,,Region del Maule,Curico,Hualañe,,,0,,,-71.8300,-34.9644
2016-2017,HIJ.PONIENTE,152-115,HIJUELA SANTA MARIA,Plantacion Adulta,Bosques,Plantacion,Adulta,No Aplica,,,,Region del Maule,Curico,Hualañe,,,0,,,-71.8143,-34.9661
2016-2017,LOS REMOLINOS,J-60,,Terreno de Uso Agricola,Terrenos Agricolas,Terreno de Uso Agricola,,,,,,Region del Maule,Curico,Hualañe,,,0,,,-71.6984,-35.0604
2016-2017,BARROS NEGROS,163-47,SAN MIGUEL,Rotacion Cultivo-Pradera,Terrenos Agricolas,Rotacion Cultivo-Pradera,,,,,,Region del Maule,Talca,Maule,,,0,,,-71.7094,-35.4787
2016-2017,CHIRIPILCO,137-189,LT A 4 EL MIRADOR,Matorral Arborescente Semidenso,Praderas y Matorrales,Matorral Arborescente,No Aplica,Semidenso,,,,Region del Maule,Curico,Hualañe,,,0,,,-71.6272,-35.0757
2016-2017,VILLA FRANCIA,167-40,PARRON GRANDE HIJ A PC 1,Rotacion Cultivo-Pradera,Terrenos Agricolas,Rotacion Cultivo-Pradera,,,,,,Region del Maule,Talca,Maule,,,0,,,-71.6528,-35.4547
2016-2017,VILLA FRANCIA,167-19,EL PARRON HIJ A PC 2,Rotacion Cultivo-Pradera,Terrenos Agricolas,Rotacion Cultivo-Pradera,,,,,,Region del Maule,Talca,Maule,,,0,,,-71.6529,-35.4562
2016-2017,VILLA FRANCIA,167-18,RUTA 5 SUR KM 256,Rotacion Cultivo-Pradera,Terrenos Agricolas,Rotacion Cultivo-Pradera,,,,,,Region del Maule,Talca,Maule,,,0,,,-71.6500,-35.4556
2016-2017,VILLA FRANCIA,167-37,SANTA PAULINA,Ciudades. Pueblos. Zonas Industriales,Areas Urbanas e Industriales,Ciudades. Pueblos. Zonas Industriales,,,,,,Region del Maule,Talca,Maule,,,0,,,-71.6567,-35.4604
2016-2017,COEXCA,SR,,Rotacion Cultivo-Pradera,Terrenos Agricolas,Rotacion Cultivo-Pradera,,,,,,Region del Maule,Talca,Maule,,,0,,,-71.6492,-35.4578
2016-2017,COEXCA,SR,,Rotacion Cultivo-Pradera,Terrenos Agricolas,Rotacion Cultivo-Pradera,,,,,,Region del Maule,Talca,Maule,,,0,,,-71.6531,-35.4582
2016-2017,COLIN,166-4,,Rotacion Cultivo-Pradera,Terrenos Agricolas,Rotacion Cultivo-Pradera,,,,,,Region del Maule,Talca,Maule,,,0,,,-71.7009,-35.4594
2016-2017,LOS PATOS,VP-A,,Rotacion Cultivo-Pradera,Terrenos Agricolas,Rotacion Cultivo-Pradera,,,,,,Region del Maule,Talca,Maule,,,0,,,-71.6653,-35.4607
2016-2017,COLIN // CHICON,163-2,SANTA HERMINIA HIJ 4 COLIN COMUNA DE MAU,Plantacion con Exoticas Asilvestradas,Bosques,Plantacion,con Exoticas Asilvestradas,No Aplica,,,,Region del Maule,Talca,Maule,,,0,,,-71.7660,-35.4577
2016-2017,LOS PATOS,167-39,LOS PATOS HJ 39,Rotacion Cultivo-Pradera,Terrenos Agricolas,Rotacion Cultivo-Pradera,,,,,,Region del Maule,Talca,Maule,,,0,,,-71.6583,-35.4675
2016-2017,LOS PATOS,167-39,LOS PATOS HJ 39,Rotacion Cultivo-Pradera,Terrenos Agricolas,Rotacion Cultivo-Pradera,,,,,,Region del Maule,Talca,Maule,,,0,,,-71.6583,-35.4674
2016-2017,BARROS NEGROS,167-23,PARCELA SANTA SARA,Rotacion Cultivo-Pradera,Terrenos Agricolas,Rotacion Cultivo-Pradera,,,,,,Region del Maule,Talca,Maule,,,0,,,-71.6750,-35.4728
2016-2017,FUNDO SANTA BERTINA,163-44,SANTA CLARA DE COLIN,Plantacion Adulta,Bosques,Plantacion,Adulta,No Aplica,,,,Region del Maule,Talca,Maule,,,0,,,-71.7152,-35.4727
2016-2017,ESTACI?ôN COLIN,163-150,STA TERESA COLIN LT 1,Rotacion Cultivo-Pradera,Terrenos Agricolas,Rotacion Cultivo-Pradera,,,,,,Region del Maule,Talca,Maule,,,0,,,-71.7401,-35.4768
2016-2017,SAN JUAN,168-26,FUNDO SAN JUAN,Rotacion Cultivo-Pradera,Terrenos Agricolas,Rotacion Cultivo-Pradera,,,,,,Region del Maule,Talca,Maule,,,0,,,-71.6926,-35.5119
2016-2017,SAN JUAN,168-26,FUNDO SAN JUAN,Rotacion Cultivo-Pradera,Terrenos Agricolas,Rotacion Cultivo-Pradera,,,,,,Region del Maule,Talca,Maule,,,0,,,-71.6922,-35.5137
2016-2017,VISTA HERMOSA,153-13,VISTA HERMOSA,Rotacion Cultivo-Pradera,Terrenos Agricolas,Rotacion Cultivo-Pradera,,,,,,Region del Maule,Talca,Maule,,,0,,,-71.6492,-35.5228
2016-2017,EL CHIVATO,157-30,PUEBLECILLO,Bosque Nativo Renoval Semidenso,Bosques,Bosque Nativo,Renoval,Semidenso,< 2,Esclerofilo,Espino,Region del Maule,Talca,Maule,,,0,,,-71.7097,-35.5345
2016-2017,CALEJON LA FLORIDA,153-92,PARCELA 19 CASAS DE MAULE,Rotacion Cultivo-Pradera,Terrenos Agricolas,Rotacion Cultivo-Pradera,,,,,,Region del Maule,Talca,Maule,,,0,,,-71.6369,-35.5441
2016-2017,MARIA AUXILIADORA,163-255,CHACRA SAN AGUSTIN HJ 3,Rotacion Cultivo-Pradera,Terrenos Agricolas,Rotacion Cultivo-Pradera,,,,,,Region del Maule,Talca,Maule,,,0,,,-71.7261,-35.4708
2016-2017,CERRO MAULE,164-253,,Rotacion Cultivo-Pradera,Terrenos Agricolas,Rotacion Cultivo-Pradera,,,,,,Region del Maule,Talca,Maule,,,0,,,-71.7684,-35.4660
2016-2017,NUMPAY,164-414,PARCELA NUMPAY HIJUELA 1,Rotacion Cultivo-Pradera,Terrenos Agricolas,Rotacion Cultivo-Pradera,,,,,,Region del Maule,Talca,Maule,,,0,,,-71.7151,-35.4899
2016-2017,BRISAS DE UNIHUE,166-55,SAN JOSE BARROS NEGROS LT 4,Rotacion Cultivo-Pradera,Terrenos Agricolas,Rotacion Cultivo-Pradera,,,,,,Region del Maule,Talca,Maule,,,0,,,-71.7032,-35.4746
2016-2017,CHACARILLA,167-26,EL SAUZAL,Rotacion Cultivo-Pradera,Terrenos Agricolas,Rotacion Cultivo-Pradera,,,,,,Region del Maule,Talca,Maule,,,0,,,-71.6606,-35.4846
2016-2017,FUNDO UNIHUE,168-256,FDO UNIHUE HJ 6,Rotacion Cultivo-Pradera,Terrenos Agricolas,Rotacion Cultivo-Pradera,,,,,,Region del Maule,Talca,Maule,,,0,,,-71.6788,-35.4858
2016-2017,CHACARILLAS,168-267,POTRERO EL ENCANTO LT C,Rotacion Cultivo-Pradera,Terrenos Agricolas,Rotacion Cultivo-Pradera,,,,,,Region del Maule,Talca,Maule,,,0,,,-71.6720,-35.5127
2016-2017,CERRO MAULE,168-319,SAN PABLO LT B 2 1,Rotacion Cultivo-Pradera,Terrenos Agricolas,Rotacion Cultivo-Pradera,,,,,,Region del Maule,Talca,Maule,,,0,,,-71.7014,-35.5155
2016-2017,COLIN // LA ESPERANZA,164-348,FUNDO TALHUEN LOTE B- 6,Praderas Anuales,Praderas y Matorrales,Praderas,Praderas Anuales,No Aplica,,,,Region del Maule,Talca,Maule,,,0,,,-71.7542,-35.4861
2016-2017,SANTA MAR?ìA DE ARQU?ëN,160-75,ARQUEN PC 24 ST 31,Plantacion Adulta,Bosques,Plantacion,Adulta,No Aplica,,,,Region del Maule,Linares,Yerbas Buenas,,,0,,,-71.5563,-35.6575
2016-2017,PUENTE PANDO,164-46,SAN IGNACIO PROYECTO 15 PARCELA N 15 Y B,Terreno de Uso Agricola,Terrenos Agricolas,Terreno de Uso Agricola,,,,,,Region del Maule,Linares,Yerbas Buenas,,,0,,,-71.5788,-35.5919
2016-2017,SAN IGNACIO,VP-E,,Terreno de Uso Agricola,Terrenos Agricolas,Terreno de Uso Agricola,,,,,,Region del Maule,Linares,Yerbas Buenas,,,0,,,-71.5681,-35.6006
2016-2017,FUNDO SAN ESTEBAN,158-25,FDO LAS NIEVES,Matorral Semidenso,Praderas y Matorrales,Matorral,No Aplica,Semidenso,,,,Region del Maule,Linares,Yerbas Buenas,,,0,,,-71.5972,-35.6989
2016-2017,LA HIGUERILLA PARAISO,209-79,SANTA CORINA,Plantacion Joven o Recien Cosechada,Bosques,Plantacion,Joven o Recien Cosechada,No Aplica,,,,Region del Maule,Talca,Curepto,,,0,,,-71.9444,-35.2080
2016-2017,LOS MOLINOS,VP-GGGGG,,Plantacion Adulta,Bosques,Plantacion,Adulta,No Aplica,,,,Region del Maule,Talca,Curepto,,,0,,,-71.9994,-35.1844
2016-2017,LIEN,154-33,LA CASA LIEN CUREPTO,Rotacion Cultivo-Pradera,Terrenos Agricolas,Rotacion Cultivo-Pradera,,,,,,Region del Maule,Talca,Curepto,,,0,,,-71.9714,-35.1039
2016-2017,SAN CARLOS,131-28,TALQUITA,Plantacion con Exoticas Asilvestradas,Bosques,Plantacion,con Exoticas Asilvestradas,No Aplica,,,,Region del Maule,Curico,Vichuquen,,,0,,,-71.9964,-34.8942
2016-2017,TILICURA,168-13,,Terreno de Uso Agricola,Terrenos Agricolas,Terreno de Uso Agricola,,,,,,Region del Maule,Curico,Vichuquen,,,0,,,-71.9416,-34.8429
2016-2017,RAPILERMO CONTRERAS CONV.2017,208-85,RAPILERMO LT 3,Matorral-Pradera Abierto,Praderas y Matorrales,Matorral-Pradera,No Aplica,Abierto,,,,Region del Maule,Talca,Curepto,,,0,,,-71.8553,-35.1778
2016-2017,HIGUERILLA PARAISO,205-35,,Bosque Nativo Renoval Semidenso,Bosques,Bosque Nativo,Renoval,Semidenso,< 2,Esclerofilo,Peumo-Quillay-Litre,Region del Maule,Talca,Curepto,,,0,,,-71.8675,-35.2028
2016-2017,EL ALAMO Y LOS APESTADOS,166-64,LTA 2 Y B LA QUIRIGUA,Plantacion Joven o Recien Cosechada,Bosques,Plantacion,Joven o Recien Cosechada,No Aplica,,,,Region del Maule,Curico,Vichuquen,,,0,,,-72.0311,-34.8075
2016-2017,LA JUNTA,161-5,VIVERO Y DUNA,Plantacion Adulta,Bosques,Plantacion,Adulta,No Aplica,,,,Region del Maule,Curico,Vichuquen,,,0,,,-72.0478,-34.8033
2016-2017,PUNTA DEL BARCO//LA JUNTA,161-5,VIVERO Y DUNA,Plantacion con Exoticas Asilvestradas,Bosques,Plantacion,con Exoticas Asilvestradas,No Aplica,,,,Region del Maule,Curico,Vichuquen,,,0,,,-72.0485,-34.8029
2016-2017,LA JUNTA,161-5,VIVERO Y DUNA,Matorral Arborescente Semidenso,Praderas y Matorrales,Matorral Arborescente,No Aplica,Semidenso,,,,Region del Maule,Curico,Vichuquen,,,0,,,-72.0508,-34.7970
2016-2017,LAS CARDILLAS,133-25,CANELILLO LT B,Plantacion con Exoticas Asilvestradas,Bosques,Plantacion,con Exoticas Asilvestradas,No Aplica,,,,Region del Maule,Curico,Vichuquen,,,0,,,-71.9875,-34.8983
2016-2017,URACO,131-15,EL PERAL,Plantacion con Exoticas Asilvestradas,Bosques,Plantacion,con Exoticas Asilvestradas,No Aplica,,,,Region del Maule,Curico,Vichuquen,,,0,,,-71.9939,-34.9042
2016-2017,LAS ISLAS CHICAS,141-47,CAPELLANIA,Bosque Nativo-Plantacion Semidenso,Bosques,Bosque Mixto,Nativo-Plantacion,Semidenso,,,,Region del Maule,Curico,Vichuquen,,,0,,,-72.0778,-34.9267
2016-2017,BOSQUES DE IDAHUE,VP-W,,Matorral-Pradera Abierto,Praderas y Matorrales,Matorral-Pradera,No Aplica,Abierto,,,,Region del Maule,Curico,Licantue,,,0,,,-71.9344,-34.9903
2016-2017,SAN PEDRO Y LAS CANAS III,461-11,LAS CANAS,Plantacion Adulta,Bosques,Plantacion,Adulta,No Aplica,,,,Region del Maule,Talca,Constitucion,,,0,,,-72.4386,-35.4969
2016-2017,LOS HUALLES,323-4,RINCON LARGO CARRIZAL,Plantacion Adulta,Bosques,Plantacion,Adulta,No Aplica,,,,Region del Maule,Talca,Constitucion,,,0,,,-72.2433,-35.2311
2016-2017,BARRANCAS PARDO 3,363-29,LOMA LIPIA LAS BARRANCAS,Plantacion Adulta,Bosques,Plantacion,Adulta,No Aplica,,,,Region del Maule,Talca,Constitucion,,,0,,,-72.1358,-35.2467
2016-2017,EL RADAL,VP-SS,,Bosque Nativo Renoval Semidenso,Bosques,Bosque Nativo,Renoval,Semidenso,< 2,Esclerofilo,Peumo-Quillay-Litre,Region del Maule,Curico,Vichuquen,,,0,,,-72.0074,-34.9448
2016-2017,SUCESION LOTE B,VP-VV,,Plantacion Adulta,Bosques,Plantacion,Adulta,No Aplica,,,,Region del Maule,Curico,Vichuquen,,,0,,,-72.0101,-34.9163
2016-2017,SAN CARLOS,131-27,RINCONADA RESTO,Plantacion Adulta,Bosques,Plantacion,Adulta,No Aplica,,,,Region del Maule,Curico,Vichuquen,,,0,,,-71.9988,-34.8946
2016-2017,TALQUITA // SAN CARLOS,131-27,RINCONADA RESTO,Plantacion Adulta,Bosques,Plantacion,Adulta,No Aplica,,,,Region del Maule,Curico,Vichuquen,,,0,,,-71.9978,-34.8975
2016-2017,CHACARILLAS,SR,,Plantacion Adulta,Bosques,Plantacion,Adulta,No Aplica,,,,Region del Maule,Talca,Constitucion,,,0,,,-72.4219,-35.3381
2016-2017,CHACARILLAS,SR,,Plantacion Adulta,Bosques,Plantacion,Adulta,No Aplica,,,,Region del Maule,Talca,Constitucion,,,0,,,-72.4214,-35.3369
2016-2017,CHACARILLAS,SR,,Plantacion Adulta,Bosques,Plantacion,Adulta,No Aplica,,,,Region del Maule,Talca,Constitucion,,,0,,,-72.4214,-35.3364
2016-2017,CHACARILLAS,SR,,Ciudades. Pueblos. Zonas Industriales,Areas Urbanas e Industriales,Ciudades. Pueblos. Zonas Industriales,,,,,,Region del Maule,Talca,Constitucion,,,0,,,-72.4192,-35.3358
2016-2017,QUIVOLGO 1,315-8,QUIVOLGO,Plantacion Adulta,Bosques,Plantacion,Adulta,No Aplica,,,,Region del Maule,Talca,Constitucion,,,0,,,-72.3747,-35.3209
2016-2017,SAN EXPEDITO CONV.2019,413-31,LOMA LARGA MAQUEHUA,Bosque Nativo-Plantacion Denso,Bosques,Bosque Mixto,Nativo-Plantacion,Denso,,,,Region del Maule,Talca,Constitucion,,,0,,,-72.2666,-35.3930
2016-2017,LA CARMNA,424-77,CRUCE EMP HIJ 3,Plantacion Joven o Recien Cosechada,Bosques,Plantacion,Joven o Recien Cosechada,No Aplica,,,,Region del Maule,Talca,Constitucion,,,0,,,-72.2822,-35.4469
2016-2017,VILLA NANCY 2,423-58,EL ENCINO,Matorral Denso,Praderas y Matorrales,Matorral,No Aplica,Denso,,,,Region del Maule,Talca,Constitucion,,,0,,,-72.2656,-35.4544
2016-2017,ROCAS DE CONSTITUCION PART,519-34,BRISAS DEL MAULE LT A- 1,Plantacion con Exoticas Asilvestradas,Bosques,Plantacion,con Exoticas Asilvestradas,No Aplica,,,,Region del Maule,Talca,Constitucion,,,0,,,-72.3947,-35.3706
2016-2017,VI?æALES,VP-NN,,Plantacion Adulta,Bosques,Plantacion,Adulta,No Aplica,,,,Region del Maule,Talca,Constitucion,,,0,,,-72.4081,-35.3619
2016-2017,VI?æALES,VP-NN,,Plantacion Adulta,Bosques,Plantacion,Adulta,No Aplica,,,,Region del Maule,Talca,Constitucion,,,0,,,-72.4081,-35.3617
2016-2017,LAS VERTIENTES,260-52,LAS VERTIENTES,Plantacion Adulta,Bosques,Plantacion,Adulta,No Aplica,,,,Region del Maule,Cauquenes,Chanco,,,0,,,-72.5147,-35.6850
2016-2017,EL ROSAL,476-113,,Bosque Nativo con Exoticas Asilvestradas Semidenso,Bosques,Bosque Mixto,Nativo con Exoticas Asilvestradas,Semidenso,,,,Region del Maule,Talca,Constitucion,,,0,,,-72.4189,-35.3883
2016-2017,EL CULENAR,VP-YY,,Matorral Semidenso,Praderas y Matorrales,Matorral,No Aplica,Semidenso,,,,Region del Maule,Talca,Constitucion,,,0,,,-72.0624,-35.3697
2016-2017,LOS PEUMOS,VP-YY,,Bosque Nativo Renoval Semidenso,Bosques,Bosque Nativo,Renoval,Semidenso,4 - 8,Roble-Hualo,Roble-Hualo,Region del Maule,Talca,Constitucion,,,0,,,-72.0643,-35.3532
2016-2017,LONCOMILLA,218-20,PARCELA CHOCOA,Matorral Abierto,Praderas y Matorrales,Matorral,No Aplica,Abierto,,,,Region del Maule,Linares,Villa Alegre,,,0,,,-71.7453,-35.6515
2016-2017,EL ROSAL PART,477-10,,Plantacion Adulta,Bosques,Plantacion,Adulta,No Aplica,,,,Region del Maule,Talca,Constitucion,,,0,,,-72.3769,-35.4358
2016-2017,LA ESPERANZA,169-22,STA ELIANA LOTE 2,Rotacion Cultivo-Pradera,Terrenos Agricolas,Rotacion Cultivo-Pradera,,,,,,Region del Maule,Talca,Maule,,,0,,,-71.6408,-35.4758
2016-2017,LOMAS LA TORTILLA,218-2,FDO CHOCOA,Plantacion con Exoticas Asilvestradas,Bosques,Plantacion,con Exoticas Asilvestradas,No Aplica,,,,Region del Maule,Linares,Villa Alegre,,,0,,,-71.7582,-35.6168
2016-2017,BOSQUE MUNICIPAL,4103-37,CERRO MUNICIPA,Plantacion con Exoticas Asilvestradas,Bosques,Plantacion,con Exoticas Asilvestradas,No Aplica,,,,Region del Maule,Talca,Talca,,,0,,,-71.6871,-35.4160
2016-2017,CERRO DE LA VIRGEN,4106-18,FUNDO BELLAVISTA,Bosque Nativo Renoval Abierto,Bosques,Bosque Nativo,Renoval,Abierto,2 - 4,Esclerofilo,Espino,Region del Maule,Talca,Talca,,,0,,,-71.6961,-35.4193
2016-2017,BRISAS DEL ED?ëN,3983-7,BRISAS DEL EDEN,Terreno de Uso Agricola,Terrenos Agricolas,Terreno de Uso Agricola,,,,,,Region del Maule,Talca,Talca,,,0,,,-71.5969,-35.3869
2016-2017,RIVERA RIO CLARO,RIO CLARO,,Plantacion con Exoticas Asilvestradas,Bosques,Plantacion,con Exoticas Asilvestradas,No Aplica,,,,Region del Maule,Talca,Talca,,,0,,,-71.6595,-35.3994
2016-2017,LIRCAY,VP-WW,,Plantacion con Exoticas Asilvestradas,Bosques,Plantacion,con Exoticas Asilvestradas,No Aplica,,,,Region del Maule,Talca,Talca,,,0,,,-71.6144,-35.3987
2016-2017,VILLA  MAGISTERIO,TALCA,,Ciudades. Pueblos. Zonas Industriales,Areas Urbanas e Industriales,Ciudades. Pueblos. Zonas Industriales,,,,,,Region del Maule,Talca,Talca,,,0,,,-71.6983,-35.4436
2016-2017,REGINA PACIS,TALCA,,Plantacion con Exoticas Asilvestradas,Bosques,Plantacion,con Exoticas Asilvestradas,No Aplica,,,,Region del Maule,Talca,Talca,,,0,,,-71.6779,-35.4248
2016-2017,BAJO  26 SUR,TALCA,,Ciudades. Pueblos. Zonas Industriales,Areas Urbanas e Industriales,Ciudades. Pueblos. Zonas Industriales,,,,,,Region del Maule,Talca,Talca,,,0,,,-71.6925,-35.4384
2016-2017,FITAL,TALCA,,Ciudades. Pueblos. Zonas Industriales,Areas Urbanas e Industriales,Ciudades. Pueblos. Zonas Industriales,,,,,,Region del Maule,Talca,Talca,,,0,,,-71.6782,-35.4175
2016-2017,GIMNASIO REGIONAL,TALCA,,Ciudades. Pueblos. Zonas Industriales,Areas Urbanas e Industriales,Ciudades. Pueblos. Zonas Industriales,,,,,,Region del Maule,Talca,Talca,,,0,,,-71.6387,-35.4249
2016-2017,GIMNASIO REGIONAL,TALCA,,Ciudades. Pueblos. Zonas Industriales,Areas Urbanas e Industriales,Ciudades. Pueblos. Zonas Industriales,,,,,,Region del Maule,Talca,Talca,,,0,,,-71.6397,-35.4238
2016-2017,NUEVA HOLANDA,TALCA,,Ciudades. Pueblos. Zonas Industriales,Areas Urbanas e Industriales,Ciudades. Pueblos. Zonas Industriales,,,,,,Region del Maule,Talca,Talca,,,0,,,-71.6327,-35.4244
2016-2017,SANTA MARTA,TALCA,,Ciudades. Pueblos. Zonas Industriales,Areas Urbanas e Industriales,Ciudades. Pueblos. Zonas Industriales,,,,,,Region del Maule,Talca,Talca,,,0,,,-71.6409,-35.4364
2016-2017,ESTRELLA DE LIRCAY,3983-200,EST DE LIRCAY PC 12,Matorral Abierto,Praderas y Matorrales,Matorral,No Aplica,Abierto,,,,Region del Maule,Talca,Talca,,,0,,,-71.6429,-35.3826
2016-2017,BUENAVISTA,4121-7,,Plantacion con Exoticas Asilvestradas,Bosques,Plantacion,con Exoticas Asilvestradas,No Aplica,,,,Region del Maule,Talca,Talca,,,0,,,-71.6597,-35.3876
2016-2017,PROVIDENCIA,3983-142,PROVIDENCIA PARCELA 6,Terreno de Uso Agricola,Terrenos Agricolas,Terreno de Uso Agricola,,,,,,Region del Maule,Talca,Talca,,,0,,,-71.5778,-35.3958
2016-2017,PUENTE LIRCAY,3983-16,20 ORIENTE 4465 CALLE SERVICIO,Terreno de Uso Agricola,Terrenos Agricolas,Terreno de Uso Agricola,,,,,,Region del Maule,Talca,Talca,,,0,,,-71.6171,-35.3957
2016-2017,PUENTE LIRCAY,3983-16,20 ORIENTE 4465 CALLE SERVICIO,Terreno de Uso Agricola,Terrenos Agricolas,Terreno de Uso Agricola,,,,,,Region del Maule,Talca,Talca,,,0,,,-71.6164,-35.3953
2016-2017,CERRILLO ESPERANZA,3729-20,LA FLORIDA,Matorral-Pradera Abierto,Praderas y Matorrales,Matorral-Pradera,No Aplica,Abierto,,,,Region del Maule,Talca,Talca,,,0,,,-71.6231,-35.4681
2016-2017,SAN MARCOS,3731-2,,Plantacion con Exoticas Asilvestradas,Bosques,Plantacion,con Exoticas Asilvestradas,No Aplica,,,,Region del Maule,Talca,Talca,,,0,,,-71.6938,-35.4335
2016-2017,BELLA VISTA,4106-15,FUNDO BELLAVISTA,Terreno de Uso Agricola,Terrenos Agricolas,Terreno de Uso Agricola,,,,,,Region del Maule,Talca,Talca,,,0,,,-71.6948,-35.4287
2016-2017,PANAMERICANA,3727-6,,Ciudades. Pueblos. Zonas Industriales,Areas Urbanas e Industriales,Ciudades. Pueblos. Zonas Industriales,,,,,,Region del Maule,Talca,Talca,,,0,,,-71.6458,-35.4502
2016-2017,MOLINO TALCA,3728-2,CAM A DUAO,Ciudades. Pueblos. Zonas Industriales,Areas Urbanas e Industriales,Ciudades. Pueblos. Zonas Industriales,,,,,,Region del Maule,Talca,Talca,,,0,,,-71.6494,-35.4502
2016-2017,EL TABACO,3701-1,LAS MERCEDES LOTE A,Rotacion Cultivo-Pradera,Terrenos Agricolas,Rotacion Cultivo-Pradera,,,,,,Region del Maule,Talca,Talca,,,0,,,-71.6521,-35.4507
2016-2017,CERRILLO CAIVAN,3729-30,,Rotacion Cultivo-Pradera,Terrenos Agricolas,Rotacion Cultivo-Pradera,,,,,,Region del Maule,Talca,Maule,,,0,,,-71.6341,-35.4851
2016-2017,BAJO LA FLORIDA,RIO CLARO,,Rios,Cuerpos de Agua,Rios,,,,,,Region del Maule,Talca,Talca,,,0,,,-71.6976,-35.4347
2016-2017,VILLA RIOS,TALCA,,Rios,Cuerpos de Agua,Rios,,,,,,Region del Maule,Talca,Talca,,,0,,,-71.6618,-35.4026
2016-2017,CAR,TALCA,,Terreno de Uso Agricola,Terrenos Agricolas,Terreno de Uso Agricola,,,,,,Region del Maule,Talca,Talca,,,0,,,-71.6737,-35.4107
2016-2017,EL MEMBRILLO,SR,,Praderas Perennes,Praderas y Matorrales,Praderas,Praderas Perennes,No Aplica,,,,Region del Maule,Talca,Constitucion,,,0,,,-72.3239,-35.2537
2016-2017,AGUA BUENA,411-27,AGUA BUENA 1,Plantacion Adulta,Bosques,Plantacion,Adulta,No Aplica,,,,Region del Maule,Talca,Constitucion,,,0,,,-72.1517,-35.2683
2016-2017,CHACARILLAS,511-5,,Ciudades. Pueblos. Zonas Industriales,Areas Urbanas e Industriales,Ciudades. Pueblos. Zonas Industriales,,,,,,Region del Maule,Talca,Constitucion,,,0,,,-72.3700,-35.3919
2016-2017,CELULOSA CONSTITUCION,CONSTITUCION,,Ciudades. Pueblos. Zonas Industriales,Areas Urbanas e Industriales,Ciudades. Pueblos. Zonas Industriales,,,,,,Region del Maule,Talca,Constitucion,,,0,,,-72.4228,-35.3263
2016-2017,EL CARBON PART.,512-179,VINALES LT 2,Plantacion Adulta,Bosques,Plantacion,Adulta,No Aplica,,,,Region del Maule,Talca,Constitucion,,,0,,,-72.4081,-35.3644
2016-2017,EL HUILLIN NORTE,407-24,EL PARRON,Plantacion Adulta,Bosques,Plantacion,Adulta,No Aplica,,,,Region del Maule,Talca,Constitucion,,,0,,,-72.1781,-35.4203
2016-2017,EL ROSAL PART,476-25,EL ROSAL,Plantacion Joven o Recien Cosechada,Bosques,Plantacion,Joven o Recien Cosechada,No Aplica,,,,Region del Maule,Talca,Constitucion,,,0,,,-72.3897,-35.4217
2016-2017,LA LOMA Y LOMA DE MAYO PART.,476-25,EL ROSAL,Plantacion Adulta,Bosques,Plantacion,Adulta,No Aplica,,,,Region del Maule,Talca,Constitucion,,,0,,,-72.4019,-35.4289
2016-2017,CHACARILLAS,SR,,Plantacion Adulta,Bosques,Plantacion,Adulta,No Aplica,,,,Region del Maule,Talca,Constitucion,,,0,,,-72.4293,-35.3478
2016-2017,CHACARILLAS,SR,,Plantacion Adulta,Bosques,Plantacion,Adulta,No Aplica,,,,Region del Maule,Talca,Constitucion,,,0,,,-72.4288,-35.3493
2016-2017,EL PERAL-N,424-51,EL PERAL,Plantacion Joven o Recien Cosechada,Bosques,Plantacion,Joven o Recien Cosechada,No Aplica,,,,Region del Maule,Talca,Constitucion,,,0,,,-72.2885,-35.4495
2016-2017,MAGUILLIN PART.,476-3,BUENA VISTA,Plantacion Adulta,Bosques,Plantacion,Adulta,No Aplica,,,,Region del Maule,Talca,Constitucion,,,0,,,-72.4428,-35.4214
2016-2017,BUENA VISTA MAUREIRA,476-3,BUENA VISTA,Plantacion Adulta,Bosques,Plantacion,Adulta,No Aplica,,,,Region del Maule,Talca,Constitucion,,,0,,,-72.4420,-35.4207
2016-2017,BUENA VISTA MAUREIRA,476-3,BUENA VISTA,Bosque Nativo Renoval Semidenso,Bosques,Bosque Nativo,Renoval,Semidenso,< 2,Esclerofilo,Peumo-Quillay-Litre,Region del Maule,Talca,Constitucion,,,0,,,-72.4444,-35.4192
2016-2017,BUENA VISTA MAUREIRA,476-3,BUENA VISTA,Bosque Nativo Renoval Semidenso,Bosques,Bosque Nativo,Renoval,Semidenso,< 2,Esclerofilo,Peumo-Quillay-Litre,Region del Maule,Talca,Constitucion,,,0,,,-72.4443,-35.4217
2016-2017,TRAPICHE 2,SR,,Terreno de Uso Agricola,Terrenos Agricolas,Terreno de Uso Agricola,,,,,,Region del Maule,Talca,Constitucion,,,0,,,-72.0597,-35.2906
2016-2017,CERRO ALTO PART.,VP-PP,,Matorral-Pradera Abierto,Praderas y Matorrales,Matorral-Pradera,No Aplica,Abierto,,,,Region del Maule,Talca,Constitucion,,,0,,,-72.4344,-35.3433
2016-2017,CHACARILLAS,VP-PP,,Matorral-Pradera Abierto,Praderas y Matorrales,Matorral-Pradera,No Aplica,Abierto,,,,Region del Maule,Talca,Constitucion,,,0,,,-72.4340,-35.3310
2016-2017,EL NARANJO,311-42,PANGALILLO HIJ 5,Ciudades. Pueblos. Zonas Industriales,Areas Urbanas e Industriales,Ciudades. Pueblos. Zonas Industriales,,,,,,Region del Maule,Talca,Constitucion,,,0,,,-72.4056,-35.3539
2016-2017,CHACARILLAS,VILLA COPIHUE,,Plantacion Adulta,Bosques,Plantacion,Adulta,No Aplica,,,,Region del Maule,Talca,Constitucion,,,0,,,-72.4265,-35.3325
2016-2017,CHACARILLAS,VILLA COPIHUE,,Ciudades. Pueblos. Zonas Industriales,Areas Urbanas e Industriales,Ciudades. Pueblos. Zonas Industriales,,,,,,Region del Maule,Talca,Constitucion,,,0,,,-72.4261,-35.3311
2016-2017,CHACARILLAS,512-24,CHACARILLAS,Ciudades. Pueblos. Zonas Industriales,Areas Urbanas e Industriales,Ciudades. Pueblos. Zonas Industriales,,,,,,Region del Maule,Talca,Constitucion,,,0,,,-72.4236,-35.3342
2016-2017,CHACARILLAS,512-24,CHACARILLAS,Plantacion Adulta,Bosques,Plantacion,Adulta,No Aplica,,,,Region del Maule,Talca,Constitucion,,,0,,,-72.4306,-35.3383
2016-2017,CHACARILLAS,512-24,CHACARILLAS,Plantacion Adulta,Bosques,Plantacion,Adulta,No Aplica,,,,Region del Maule,Talca,Constitucion,,,0,,,-72.4215,-35.3344
2016-2017,CHACARILLAS,512-24,CHACARILLAS,Plantacion Adulta,Bosques,Plantacion,Adulta,No Aplica,,,,Region del Maule,Talca,Constitucion,,,0,,,-72.4242,-35.3392
2016-2017,CHACARILLAS,512-24,CHACARILLAS,Plantacion Adulta,Bosques,Plantacion,Adulta,No Aplica,,,,Region del Maule,Talca,Constitucion,,,0,,,-72.4233,-35.3356
2016-2017,EL NARANJO,SR,,Plantacion Adulta,Bosques,Plantacion,Adulta,No Aplica,,,,Region del Maule,Talca,Constitucion,,,0,,,-72.4128,-35.3569
2016-2017,QUIVOLGO 1,315-7,QUIVOLGO,Playas y Dunas,Areas Desprovistas de Vegetaci?â,Playas y Dunas,,,,,,Region del Maule,Talca,Constitucion,,,0,,,-72.4050,-35.3151
2016-2017,QUIVOLGO 1,315-7,QUIVOLGO,Praderas Perennes,Praderas y Matorrales,Praderas,Praderas Perennes,No Aplica,,,,Region del Maule,Talca,Constitucion,,,0,,,-72.3978,-35.3089
2016-2017,PELLINES I,SR,,Plantacion Adulta,Bosques,Plantacion,Adulta,No Aplica,,,,Region del Maule,Talca,Constitucion,,,0,,,-72.5156,-35.5019
2016-2017,SIERRA ALEGR PART.,151-40,BUENA VISTA,Plantacion Joven o Recien Cosechada,Bosques,Plantacion,Joven o Recien Cosechada,No Aplica,,,,Region del Maule,Talca,Empedrado,,,0,,,-72.3069,-35.5992
2016-2017,BUENA VISTA FRIGERIO,SR,,Plantacion Adulta,Bosques,Plantacion,Adulta,No Aplica,,,,Region del Maule,Talca,Constitucion,,,0,,,-72.4364,-35.4086
2016-2017,SIERRA ALEGRE PART.,216-95,EL AVELLANO,Plantacion Adulta,Bosques,Plantacion,Adulta,No Aplica,,,,Region del Maule,Talca,Empedrado,,,0,,,-72.3142,-35.5911
2016-2017,BUENA VISTA-N,151-23,ZANCADILLAS LT C-D,Plantacion Adulta,Bosques,Plantacion,Adulta,No Aplica,,,,Region del Maule,Talca,Empedrado,,,0,,,-72.3099,-35.5935
2016-2017,LA ORILLA,296-12,BARRANQUILLA SECTOR LA ORILLA,Terreno de Uso Agricola,Terrenos Agricolas,Terreno de Uso Agricola,,,,,,Region del Maule,Talca,Empedrado,,,0,,,-72.2105,-35.6208
2016-2017,LA QUEBRADA // JUNQUILLAR,VP-M,,Plantacion Adulta,Bosques,Plantacion,Adulta,No Aplica,,,,Region del Maule,Linares,San Javier,,,0,,,-72.1675,-35.6286
2016-2017,QUENEHUAO,295-73,QUENEHUAO,Plantacion Joven o Recien Cosechada,Bosques,Plantacion,Joven o Recien Cosechada,No Aplica,,,,Region del Maule,Talca,Empedrado,,,0,,,-72.1864,-35.6472
2016-2017,QUENEHUAO,295-73,QUENEHUAO,Plantacion Joven o Recien Cosechada,Bosques,Plantacion,Joven o Recien Cosechada,No Aplica,,,,Region del Maule,Talca,Empedrado,,,0,,,-72.1814,-35.6389
2016-2017,PALQUIAL,387-19,EL PALQUIAL,Terreno de Uso Agricola,Terrenos Agricolas,Terreno de Uso Agricola,,,,,,Region del Maule,Linares,San Javier,,,0,,,-71.8812,-35.5683
2016-2017,SEPULTURA HIJ.2 CONV.2016,287-24,,Plantacion Adulta,Bosques,Plantacion,Adulta,No Aplica,,,,Region del Maule,Linares,San Javier,,,0,,,-71.9923,-35.5936
2016-2017,SANTA MAR?ìA DE MINGRE,387-5,SAN FRANCISCO,Plantacion Joven o Recien Cosechada,Bosques,Plantacion,Joven o Recien Cosechada,No Aplica,,,,Region del Maule,Linares,San Javier,,,0,,,-71.9942,-35.5878
2016-2017,ALTO EL RIO,225-51,STA RITA LT B,Matorral Semidenso,Praderas y Matorrales,Matorral,No Aplica,Semidenso,,,,Region del Maule,Linares,San Javier,,,0,,,-71.7717,-35.6200
2016-2017,SAN CAYETANO,387-18,TABONTINAJA HJ A,Matorral Semidenso,Praderas y Matorrales,Matorral,No Aplica,Semidenso,,,,Region del Maule,Linares,San Javier,,,0,,,-71.8823,-35.5943
2016-2017,LOS MAITENES,225-20,MILLAHUE SUR,Praderas Perennes,Praderas y Matorrales,Praderas,Praderas Perennes,No Aplica,,,,Region del Maule,Linares,San Javier,,,0,,,-71.7970,-35.6209
2016-2017,PURAPEL CONV. 2017,261-2,PURAPEL,Bosque Nativo Renoval Semidenso,Bosques,Bosque Nativo,Renoval,Semidenso,2 - 4,Esclerofilo,Esclerofilo,Region del Maule,Linares,San Javier,,,0,,,-72.0415,-35.7134
2016-2017,SAN VICENTE (ARAUCO),387-47,SANTA ANA LT A,Bosque Nativo Renoval Semidenso,Bosques,Bosque Nativo,Renoval,Semidenso,2 - 4,Esclerofilo,Peumo-Quillay-Litre,Region del Maule,Linares,San Javier,,,0,,,-71.9183,-35.5739
2016-2017,STA. MARIA MINGRE PART.,387-37,FUNDO SANTA MARIA DE MINGRE LOTE DOS,Bosque Nativo Renoval Semidenso,Bosques,Bosque Nativo,Renoval,Semidenso,< 2,Esclerofilo,Espino,Region del Maule,Linares,San Javier,,,0,,,-72.0122,-35.5758
2016-2017,LA CHIRIPA,201-7,I LA CHIRIPA,Terreno de Uso Agricola,Terrenos Agricolas,Terreno de Uso Agricola,,,,,,Region del Maule,Linares,San Javier,,,0,,,-71.7355,-35.5652
2016-2017,ISLA DE MAULECO,201-7,I LA CHIRIPA,Terreno de Uso Agricola,Terrenos Agricolas,Terreno de Uso Agricola,,,,,,Region del Maule,Linares,San Javier,,,0,,,-71.7328,-35.5656
2016-2017,EL LUCERO,220-40,PARC 9 10 11 12 Y 1,Terreno de Uso Agricola,Terrenos Agricolas,Terreno de Uso Agricola,,,,,,Region del Maule,Linares,San Javier,,,0,,,-71.7073,-35.6153
2016-2017,LAS VERTIENTES,202-5,LAS VERTIENTES,Terreno de Uso Agricola,Terrenos Agricolas,Terreno de Uso Agricola,,,,,,Region del Maule,Linares,San Javier,,,0,,,-71.6984,-35.5640
2016-2017,LA CHIRIPA,202-30,ISLA DE PANDO,Terreno de Uso Agricola,Terrenos Agricolas,Terreno de Uso Agricola,,,,,,Region del Maule,Linares,San Javier,,,0,,,-71.7313,-35.5821
2016-2017,CERRO LA CRUZ,209-115,BOBADILLA OTE LT 2,Ciudades. Pueblos. Zonas Industriales,Areas Urbanas e Industriales,Ciudades. Pueblos. Zonas Industriales,,,,,,Region del Maule,Linares,San Javier,,,0,,,-71.6939,-35.5710
2016-2017,ORILLA DE MAULE,SR,,Ciudades. Pueblos. Zonas Industriales,Areas Urbanas e Industriales,Ciudades. Pueblos. Zonas Industriales,,,,,,Region del Maule,Linares,San Javier,,,0,,,-71.6336,-35.5808
2016-2017,PARCELA 42 CALIBORO PART,278-74,SANTA JAVIERA,Praderas Perennes,Praderas y Matorrales,Praderas,Praderas Perennes,No Aplica,,,,Region del Maule,Linares,San Javier,,,0,,,-71.7825,-35.6858
2016-2017,MELOZAL NORTE,278-52,LA HIGUERA,Matorral Denso,Praderas y Matorrales,Matorral,No Aplica,Denso,,,,Region del Maule,Linares,San Javier,,,0,,,-71.7723,-35.7083
2016-2017,MELOZAL,277-101,LAS TORCAS MELOZAL,Plantacion Adulta,Bosques,Plantacion,Adulta,No Aplica,,,,Region del Maule,Linares,San Javier,,,0,,,-71.8018,-35.7113
2016-2017,BOTACURA PART.,227-2,VILLAVICENCIO,Terreno de Uso Agricola,Terrenos Agricolas,Terreno de Uso Agricola,,,,,,Region del Maule,Linares,San Javier,,,0,,,-71.8889,-35.5997
2016-2017,FUNDO MONTE PINO CONV.2016,392-5,MONTE QUEMADO CODELLIMA,Matorral Abierto,Praderas y Matorrales,Matorral,No Aplica,Abierto,,,,Region del Maule,Linares,San Javier,,,0,,,-72.0756,-35.6025
2016-2017,HIJUELA SAN VICENTE PART.,258-11,LA QUINTA,Plantacion Adulta,Bosques,Plantacion,Adulta,No Aplica,,,,Region del Maule,Linares,San Javier,,,0,,,-71.9633,-35.6894
2016-2017,VILLABORO,258-11,LA QUINTA,Plantacion Adulta,Bosques,Plantacion,Adulta,No Aplica,,,,Region del Maule,Linares,San Javier,,,0,,,-71.9650,-35.6900
2016-2017,MANANTIALES,280-28,PARCELA 43 PROYECTO PARCELACIOJAVIER,Rotacion Cultivo-Pradera,Terrenos Agricolas,Rotacion Cultivo-Pradera,,,,,,Region del Maule,Linares,San Javier,,,0,,,-71.8042,-35.6757
2016-2017,EL MORRO,278-59,EL MORRO,Matorral Abierto,Praderas y Matorrales,Matorral,No Aplica,Abierto,,,,Region del Maule,Linares,San Javier,,,0,,,-71.7803,-35.7012
2016-2017,HUERTA MAULE,266-14,LOS MAJUELOS,Praderas Anuales,Praderas y Matorrales,Praderas,Praderas Anuales,No Aplica,,,,Region del Maule,Linares,San Javier,,,0,,,-71.9723,-35.6938
2016-2017,EL GUPO,266-6,FUNDO CARRIZAL,Terreno de Uso Agricola,Terrenos Agricolas,Terreno de Uso Agricola,,,,,,Region del Maule,Linares,San Javier,,,0,,,-71.8829,-35.7050
2016-2017,LA RIBERA,278-40,EL MOGOTE MELOZAL,Matorral Semidenso,Praderas y Matorrales,Matorral,No Aplica,Semidenso,,,,Region del Maule,Linares,San Javier,,,0,,,-71.7950,-35.7111
2016-2017,ALTO DEL RIO,225-51,STA RITA LT B,Matorral Semidenso,Praderas y Matorrales,Matorral,No Aplica,Semidenso,,,,Region del Maule,Linares,San Javier,,,0,,,-71.7727,-35.6185
2016-2017,ALTO EL RIO,225-51,STA RITA LT B,Matorral Semidenso,Praderas y Matorrales,Matorral,No Aplica,Semidenso,,,,Region del Maule,Linares,San Javier,,,0,,,-71.7720,-35.6193
2016-2017,ALQUIHUE,281-88,LLANOS DE ALQUIHUELT 1 -A,Terreno de Uso Agricola,Terrenos Agricolas,Terreno de Uso Agricola,,,,,,Region del Maule,Linares,San Javier,,,0,,,-71.8089,-35.6581
2016-2017,LA GOTERA,278-74,SANTA JAVIERA,Bosque Nativo Renoval Semidenso,Bosques,Bosque Nativo,Renoval,Semidenso,< 2,Esclerofilo,Esclerofilo,Region del Maule,Linares,San Javier,,,0,,,-71.7781,-35.6931
2016-2017,TABONTINAJA HIJ. A,L-30-M,,Bosque Nativo Renoval Semidenso,Bosques,Bosque Nativo,Renoval,Semidenso,2 - 4,Esclerofilo,Peumo-Quillay-Litre,Region del Maule,Linares,San Javier,,,0,,,-71.9547,-35.5982
2016-2017,SAN JAVIER,212-126,STA ROSA LOTE A Y B,Terreno de Uso Agricola,Terrenos Agricolas,Terreno de Uso Agricola,,,,,,Region del Maule,Linares,San Javier,,,0,,,-71.7019,-35.5976
2016-2017,LOS TILOS,220-128,,Rotacion Cultivo-Pradera,Terrenos Agricolas,Rotacion Cultivo-Pradera,,,,,,Region del Maule,Linares,San Javier,,,0,,,-71.6991,-35.6181
2016-2017,CAJONES-SAN BALDOMERO,280-7,LAS PENAS,Terreno de Uso Agricola,Terrenos Agricolas,Terreno de Uso Agricola,,,,,,Region del Maule,Linares,San Javier,,,0,,,-71.8234,-35.6522
2016-2017,EL PARRON,225-2,LA HIGUERA,Matorral Arborescente Abierto,Praderas y Matorrales,Matorral Arborescente,No Aplica,Abierto,,,,Region del Maule,Linares,San Javier,,,0,,,-71.7666,-35.5851
2016-2017,LOURDES,157-37,HJ B FDO LOURDES,Matorral Arborescente Semidenso,Praderas y Matorrales,Matorral Arborescente,No Aplica,Semidenso,,,,Region del Maule,Curico,Licantue,,,0,,,-72.0114,-34.9828
2016-2017,EL PUENTE,VP-J,,Bosque Nativo Renoval Semidenso,Bosques,Bosque Nativo,Renoval,Semidenso,< 2,Esclerofilo,Peumo-Quillay-Litre,Region del Maule,Curico,Licantue,,,0,,,-71.9764,-34.9772
2016-2017,CULENAR,131-4,PC 26 FUNDO EL CULENAR,Plantacion con Exoticas Asilvestradas,Bosques,Plantacion,con Exoticas Asilvestradas,No Aplica,,,,Region del Maule,Curico,Sagrada Familia,,,0,,,-71.6674,-35.1095
2016-2017,LOS JUNQUILLOS,151-1,HIJUELA DE ABAJO,Matorral Arborescente Semidenso,Praderas y Matorrales,Matorral Arborescente,No Aplica,Semidenso,,,,Region del Maule,Curico,Licantue,,,0,,,-71.9570,-34.9613
2016-2017,BOSQUES DE IDAHUE,160-7,PARRANCA,Matorral-Pradera Abierto,Praderas y Matorrales,Matorral-Pradera,No Aplica,Abierto,,,,Region del Maule,Curico,Licantue,,,0,,,-71.9339,-34.9925
2016-2017,GUALLECO,VP-MMM,,Rotacion Cultivo-Pradera,Terrenos Agricolas,Rotacion Cultivo-Pradera,,,,,,Region del Maule,Talca,Curepto,,,0,,,-71.9853,-35.2400
2016-2017,GUALLECO,210-56,LOS MAQUIS,Terreno de Uso Agricola,Terrenos Agricolas,Terreno de Uso Agricola,,,,,,Region del Maule,Talca,Curepto,,,0,,,-71.9937,-35.2465
2016-2017,LAS AGUILAS,212-21,LEONERA,Plantacion con Exoticas Asilvestradas,Bosques,Plantacion,con Exoticas Asilvestradas,No Aplica,,,,Region del Maule,Talca,Curepto,,,0,,,-71.9617,-35.2881
2016-2017,HUAQUEN,204-17,HUAQUEN,Plantacion con Exoticas Asilvestradas,Bosques,Plantacion,con Exoticas Asilvestradas,No Aplica,,,,Region del Maule,Curico,Sagrada Familia,,,0,,,-71.6860,-35.1086
2016-2017,QUEBRADA DE REYES,K-240,,Matorral-Pradera Abierto,Praderas y Matorrales,Matorral-Pradera,No Aplica,Abierto,,,,Region del Maule,Talca,Curepto,,,0,,,-71.9464,-35.1092
2016-2017,LA POSECION CONV.2017,201-120,ESTANCILLA,Plantacion Adulta,Bosques,Plantacion,Adulta,No Aplica,,,,Region del Maule,Talca,Curepto,,,0,,,-71.8791,-35.1081
2016-2017,LA POSECION CONV.2017,VP-V,,Matorral-Pradera Abierto,Praderas y Matorrales,Matorral-Pradera,No Aplica,Abierto,,,,Region del Maule,Talca,Curepto,,,0,,,-71.8728,-35.1051
2016-2017,LA ESTANCILLA // LA POSESION,VP-V,,Matorral-Pradera Abierto,Praderas y Matorrales,Matorral-Pradera,No Aplica,Abierto,,,,Region del Maule,Talca,Curepto,,,0,,,-71.8769,-35.1053
2016-2017,LA POSECION CONV.2017,VP-V,,Plantacion Adulta,Bosques,Plantacion,Adulta,No Aplica,,,,Region del Maule,Talca,Curepto,,,0,,,-71.8758,-35.1033
2016-2017,TABUNCO//EL AGUILA CONVENIO,214-90,PARCELA DOS,Plantacion Joven o Recien Cosechada,Bosques,Plantacion,Joven o Recien Cosechada,No Aplica,,,,Region del Maule,Talca,Curepto,,,0,,,-71.9880,-35.1750
2016-2017,EL LLANO LA PALMA,VP-KKKKKK,,Plantacion Adulta,Bosques,Plantacion,Adulta,No Aplica,,,,Region del Maule,Talca,Curepto,,,0,,,-71.8156,-35.1431
2016-2017,LOS CARDENALES,175-155,LOS CARDENALES LT B,Matorral Arborescente Abierto,Praderas y Matorrales,Matorral Arborescente,No Aplica,Abierto,,,,Region del Maule,Talca,Curepto,,,0,,,-72.0451,-35.0568
2016-2017,LIBUN,111-63,LIBUN HJ 2 PTE,Bosque Nativo Renoval Semidenso,Bosques,Bosque Nativo,Renoval,Semidenso,< 2,Esclerofilo,Peumo-Quillay-Litre,Region del Maule,Talca,Pencahue,,,0,,,-71.9033,-35.3303
2016-2017,LA ISLA,133-62,VILLA PRAT LA ISLA,Terreno de Uso Agricola,Terrenos Agricolas,Terreno de Uso Agricola,,,,,,Region del Maule,Curico,Sagrada Familia,,,0,,,-71.6383,-35.0982
2016-2017,EL CULENAR,131-95,LT 1 LOMAS DEL CULENAR,Plantacion Adulta,Bosques,Plantacion,Adulta,No Aplica,,,,Region del Maule,Curico,Sagrada Familia,,,0,,,-71.6031,-35.1401
2016-2017,GUAICUT?ëN,131-95,LT 1 LOMAS DEL CULENAR,Matorral-Pradera Abierto,Praderas y Matorrales,Matorral-Pradera,No Aplica,Abierto,,,,Region del Maule,Curico,Sagrada Familia,,,0,,,-71.5937,-35.1474
2016-2017,DOCAMAVIDA,RIO MATAQUITO,,Terreno de Uso Agricola,Terrenos Agricolas,Terreno de Uso Agricola,,,,,,Region del Maule,Talca,Curepto,,,0,,,-71.9271,-35.0042
2016-2017,CORINTO,109-18,PARCELA ORIENTE,Plantacion Joven o Recien Cosechada,Bosques,Plantacion,Joven o Recien Cosechada,No Aplica,,,,Region del Maule,Talca,Pencahue,,,0,,,-71.8431,-35.4353
2016-2017,ISLA DEL MAULE,RIO MAULE,,Plantacion con Exoticas Asilvestradas,Bosques,Plantacion,con Exoticas Asilvestradas,No Aplica,,,,Region del Maule,Linares,San Javier,,,0,,,-71.6088,-35.5833
2016-2017,ORILLA DE MAULE,RIO MAULE,,Plantacion con Exoticas Asilvestradas,Bosques,Plantacion,con Exoticas Asilvestradas,No Aplica,,,,Region del Maule,Linares,San Javier,,,0,,,-71.6214,-35.5782
2016-2017,LA PUNTILLA,RIO MAULE,,Rios,Cuerpos de Agua,Rios,,,,,,Region del Maule,Talca,Maule,,,0,,,-71.8759,-35.4626
2016-2017,BOTALCURA,118-93,EL DELIRIO LT B,Terreno de Uso Agricola,Terrenos Agricolas,Terreno de Uso Agricola,,,,,,Region del Maule,Talca,Pencahue,,,0,,,-71.7673,-35.2830
2016-2017,QUEPO,103-50,PENA HERMOSA,Matorral Semidenso,Praderas y Matorrales,Matorral,No Aplica,Semidenso,,,,Region del Maule,Talca,Pencahue,,,0,,,-71.7304,-35.3782
2016-2017,PENCAHUE,104-4,EL ALMENDRO,Plantacion Adulta,Bosques,Plantacion,Adulta,No Aplica,,,,Region del Maule,Talca,Pencahue,,,0,,,-71.7956,-35.3928
2016-2017,CANCHA DE QUILLAY,116-15,EL QUILLAY,Matorral-Pradera Abierto,Praderas y Matorrales,Matorral-Pradera,No Aplica,Abierto,,,,Region del Maule,Talca,Pencahue,,,0,,,-71.9711,-35.3682
2016-2017,TRALHUENES L.1HIJ.2.,106-5,FDO RAUQUEN HJ 1,Bosque Nativo Renoval Semidenso,Bosques,Bosque Nativo,Renoval,Semidenso,< 2,Esclerofilo,Espino,Region del Maule,Talca,Pencahue,,,0,,,-71.7378,-35.4528
2016-2017,CRUCE PENCAHUE,103-9,FDO SANTA SARA,Matorral Abierto,Praderas y Matorrales,Matorral,No Aplica,Abierto,,,,Region del Maule,Talca,Pencahue,,,0,,,-71.8118,-35.3931
2016-2017,LO FIGUEROA,101-9,LO FIGUEROA,Terreno de Uso Agricola,Terrenos Agricolas,Terreno de Uso Agricola,,,,,,Region del Maule,Talca,Pencahue,,,0,,,-71.7564,-35.4114
2016-2017,LOMA_VERDE,106-32,FDO LOS TALHUENES HJ 2,Plantacion Adulta,Bosques,Plantacion,Adulta,No Aplica,,,,Region del Maule,Talca,Pencahue,,,0,,,-71.7492,-35.4439
2016-2017,CORINTO,109-2,QUINTA PARROQUIA CORINTO,Matorral Semidenso,Praderas y Matorrales,Matorral,No Aplica,Semidenso,,,,Region del Maule,Talca,Pencahue,,,0,,,-71.8650,-35.4347
2016-2017,QUEPO,103-2,FUNDO QUEPU PENCAHUE,Rotacion Cultivo-Pradera,Terrenos Agricolas,Rotacion Cultivo-Pradera,,,,,,Region del Maule,Talca,Pencahue,,,0,,,-71.7352,-35.4127
2016-2017,LOS QUILLAYES,VP-R,,Bosque Nativo Renoval Denso,Bosques,Bosque Nativo,Renoval,Denso,< 2,Esclerofilo,Peumo-Quillay-Litre,Region del Maule,Talca,Pencahue,,,0,,,-72.0553,-35.4175
2016-2017,BAJO PERQUIN,181-30,EL REFUGIO,Bosque Nativo Renoval Denso,Bosques,Bosque Nativo,Renoval,Denso,2 - 4,Esclerofilo,Peumo-Quillay-Litre,Region del Maule,Talca,San Clemente,,,0,,,-71.3371,-35.5797
2016-2017,SANTA RITA,161-56,POTRERO EL LLANO,Plantacion Adulta,Bosques,Plantacion,Adulta,No Aplica,,,,Region del Maule,Talca,San Clemente,,,0,,,-71.4667,-35.4419
2016-2017,MIRAFLORES,192-16,EL PICAZO 1,Plantacion con Exoticas Asilvestradas,Bosques,Plantacion,con Exoticas Asilvestradas,No Aplica,,,,Region del Maule,Talca,San Clemente,,,0,,,-71.2967,-35.4846
2016-2017,PICAZO 1 LLANQUIHUE CONV. (2012),192-129,FUNDO EL ESTERO,Plantacion Adulta,Bosques,Plantacion,Adulta,No Aplica,,,,Region del Maule,Talca,San Clemente,,,0,,,-71.2400,-35.4828
2016-2017,PICAZO 2 MIRENCHOU CONV. (2012),192-154,EL PICAZO RC 2 PARTE,Plantacion Adulta,Bosques,Plantacion,Adulta,No Aplica,,,,Region del Maule,Talca,San Clemente,,,0,,,-71.2511,-35.4953
2016-2017,MARIPOSAS P-331-TERRA,172-446,MARIPOSAS PC 342,Terreno de Uso Agricola,Terrenos Agricolas,Terreno de Uso Agricola,,,,,,Region del Maule,Talca,San Clemente,,,0,,,-71.2461,-35.5614
2016-2017,LAS LOMAS,188-80,LAS LOMAS PC 10,Terreno de Uso Agricola,Terrenos Agricolas,Terreno de Uso Agricola,,,,,,Region del Maule,Talca,San Clemente,,,0,,,-71.2062,-35.4935
2016-2017,CUESTA LA HORMIGA,172-590,MARIPOSAS PC 344 LT C,Plantacion Adulta,Bosques,Plantacion,Adulta,No Aplica,,,,Region del Maule,Talca,San Clemente,,,0,,,-71.1518,-35.5698
2016-2017,CUESTA LAS HORMIGAS,172-646,MARIPOSAS PC 343 LT 4,Plantacion Adulta,Bosques,Plantacion,Adulta,No Aplica,,,,Region del Maule,Talca,San Clemente,,,0,,,-71.1440,-35.5758
2016-2017,EL PICAZO ALTO,192-63,EL PICAZO SECTOR 1,Plantacion Adulta,Bosques,Plantacion,Adulta,No Aplica,,,,Region del Maule,Talca,San Clemente,,,0,,,-71.2083,-35.5169
2016-2017,EL PICASO 2,192-63,EL PICAZO SECTOR 1,Plantacion Adulta,Bosques,Plantacion,Adulta,No Aplica,,,,Region del Maule,Talca,San Clemente,,,0,,,-71.2104,-35.5116
2016-2017,LA CAMPANA,278-20,LOTEO ON ARCADIO ST 20,Bosque Nativo Renoval Semidenso,Bosques,Bosque Nativo,Renoval,Semidenso,< 2,Esclerofilo,Peumo-Quillay-Litre,Region del Maule,Talca,San Clemente,,,0,,,-71.1509,-35.5719
2016-2017,EL ROBLE,166-8,SAN JOSE ABAJO,Bosque Nativo con Exoticas Asilvestradas Denso,Bosques,Bosque Mixto,Nativo con Exoticas Asilvestradas,Denso,,,,Region del Maule,Talca,San Clemente,,,0,,,-71.1731,-35.5636
2016-2017,SANTA MARIA DE ARQUEN,165-41,MAITENCILLO PC 5 B,Terreno de Uso Agricola,Terrenos Agricolas,Terreno de Uso Agricola,,,,,,Region del Maule,Linares,Yerbas Buenas,,,0,,,-71.5371,-35.6315
2016-2017,CIRCUNVALACI?ôN CURICO,653-34,AERODROMO GRAL FREIRE,Terreno de Uso Agricola,Terrenos Agricolas,Terreno de Uso Agricola,,,,,,Region del Maule,Curico,Curico,,,0,,,-71.2175,-34.9708
2016-2017,SARMIENTO,529-3,CHACRA STA TERESA SARMIENTO,Terreno de Uso Agricola,Terrenos Agricolas,Terreno de Uso Agricola,,,,,,Region del Maule,Curico,Curico,,,0,,,-71.2061,-34.9288
2016-2017,SARMIENTO,528-17,LO CAROLINA,Terreno de Uso Agricola,Terrenos Agricolas,Terreno de Uso Agricola,,,,,,Region del Maule,Curico,Curico,,,0,,,-71.2161,-34.9419
2016-2017,MONTE OSCURO,SR,,Matorral Arborescente Semidenso,Praderas y Matorrales,Matorral Arborescente,No Aplica,Semidenso,,,,Region del Maule,Curico,Curico,,,0,,,-70.9153,-35.1364
2016-2017,MONTE OSCURO,SR,,Bosque Nativo Renoval Semidenso,Bosques,Bosque Nativo,Renoval,Semidenso,4 - 8,Esclerofilo,Peumo-Quillay-Litre,Region del Maule,Curico,Curico,,,0,,,-70.9489,-35.1324
2016-2017,LOS CRISTALES,537-156,PC 41 PP LOS CRISTALES,Plantacion Adulta,Bosques,Plantacion,Adulta,No Aplica,,,,Region del Maule,Curico,Curico,,,0,,,-71.1602,-34.9652
2016-2017,CERRO CONDELL,CURICO,,Plantacion con Exoticas Asilvestradas,Bosques,Plantacion,con Exoticas Asilvestradas,No Aplica,,,,Region del Maule,Curico,Curico,,,0,,,-71.2299,-34.9781
2016-2017,CERRO CONDELL,CURICO,,Plantacion con Exoticas Asilvestradas,Bosques,Plantacion,con Exoticas Asilvestradas,No Aplica,,,,Region del Maule,Curico,Curico,,,0,,,-71.2299,-34.9783
2016-2017,CERRO CONDELL,CURICO,,Plantacion con Exoticas Asilvestradas,Bosques,Plantacion,con Exoticas Asilvestradas,No Aplica,,,,Region del Maule,Curico,Curico,,,0,,,-71.2300,-34.9789
2016-2017,CERRO CONDELL,CURICO,,Matorral Abierto,Praderas y Matorrales,Matorral,No Aplica,Abierto,,,,Region del Maule,Curico,Curico,,,0,,,-71.2288,-34.9774
2016-2017,FUNDO SANTA ANA,551-1,FUNDO SANTA ANA LOS NICHES,Terreno de Uso Agricola,Terrenos Agricolas,Terreno de Uso Agricola,,,,,,Region del Maule,Curico,Curico,,,0,,,-71.1818,-35.0535
2016-2017,CHEQUENLEMU,545-1,SAN JORGE LOS NICHES,Terreno de Uso Agricola,Terrenos Agricolas,Terreno de Uso Agricola,,,,,,Region del Maule,Curico,Curico,,,0,,,-71.1237,-35.0836
2016-2017,LOS NICHES,551-6,HUERTO SN JOSE LOS NICHES,Terreno de Uso Agricola,Terrenos Agricolas,Terreno de Uso Agricola,,,,,,Region del Maule,Curico,Curico,,,0,,,-71.1969,-35.0894
2016-2017,PEUMO MORA,VP-BB,,Bosque Nativo Renoval Semidenso,Bosques,Bosque Nativo,Renoval,Semidenso,2 - 4,Esclerofilo,Peumo-Quillay-Litre,Region del Maule,Curico,Curico,,,0,,,-71.0747,-35.1564
2016-2017,LOS NICHES,545-117,LAS PIEDRAS HJ 2 LTS BCD,Bosque Nativo Renoval Semidenso,Bosques,Bosque Nativo,Renoval,Semidenso,< 2,Esclerofilo,Peumo-Quillay-Litre,Region del Maule,Curico,Curico,,,0,,,-71.1226,-35.1107
2016-2017,FUNDO LA PATAGUA,546-30,FUNDO SAN ANTONIO,Terreno de Uso Agricola,Terrenos Agricolas,Terreno de Uso Agricola,,,,,,Region del Maule,Curico,Curico,,,0,,,-71.1539,-35.1477
2016-2017,POTRERO GRANDE,544-24,LOS MAQUIS,Rotacion Cultivo-Pradera,Terrenos Agricolas,Rotacion Cultivo-Pradera,,,,,,Region del Maule,Curico,Curico,,,0,,,-71.0710,-35.2083
2016-2017,LA PALMA,RIO TENO,,Matorral Abierto,Praderas y Matorrales,Matorral,No Aplica,Abierto,,,,Region del Maule,Curico,Teno,,,0,,,-71.1791,-34.8950
2016-2017,LOS CRISTALES,RIO LONTUE,,Matorral-Pradera Abierto,Praderas y Matorrales,Matorral-Pradera,No Aplica,Abierto,,,,Region del Maule,Curico,Curico,,,0,,,-71.2811,-34.9922
2016-2017,TRAPICHE BAJO,RIO LONTUE,,Cajas de Rios,Areas Desprovistas de Vegetaci?â,Cajas de Rios,,,,,,Region del Maule,Curico,Sagrada Familia,,,0,,,-71.2787,-35.0079
2016-2017,TRAPICHE,RIO LONTUE,,Plantacion con Exoticas Asilvestradas,Bosques,Plantacion,con Exoticas Asilvestradas,No Aplica,,,,Region del Maule,Curico,Sagrada Familia,,,0,,,-71.3154,-34.9849
2016-2017,TENO,76-11,SANTA LIDIA HIJUELA 1,Terreno de Uso Agricola,Terrenos Agricolas,Terreno de Uso Agricola,,,,,,Region del Maule,Curico,Teno,,,0,,,-71.1371,-34.8536
2016-2017,SAN ISIDRO,47-52,PARCELA 7 GUANACO,Matorral Abierto,Praderas y Matorrales,Matorral,No Aplica,Abierto,,,,Region del Maule,Curico,Teno,,,0,,,-71.1789,-34.8498
2016-2017,TENO SUR,76-6,,Terreno de Uso Agricola,Terrenos Agricolas,Terreno de Uso Agricola,,,,,,Region del Maule,Curico,Teno,,,0,,,-71.1522,-34.8792
2016-2017,TENO,73-67,RESTO PC. 44 SAN CRISTOBAL,Terreno de Uso Agricola,Terrenos Agricolas,Terreno de Uso Agricola,,,,,,Region del Maule,Curico,Teno,,,0,,,-71.1192,-34.8570
2016-2017,CERRILLOS,74-175,LT 3 PC 15 COL TTE CRUZ,Terreno de Uso Agricola,Terrenos Agricolas,Terreno de Uso Agricola,,,,,,Region del Maule,Curico,Teno,,,0,,,-71.0904,-34.8714
2016-2017,VI?æA DE HUEMUL,67-121,FUNDO VINA HUEMUL COMUNA TENO,Terreno de Uso Agricola,Terrenos Agricolas,Terreno de Uso Agricola,,,,,,Region del Maule,Curico,Teno,,,0,,,-70.9522,-34.8803
2016-2017,LA LAGUNA,68-120,LA LAGUNA PC 57 LT A,Rotacion Cultivo-Pradera,Terrenos Agricolas,Rotacion Cultivo-Pradera,,,,,,Region del Maule,Curico,Teno,,,0,,,-70.9697,-34.9656
2016-2017,SANTA CATALINA,31-33,PC 12 PP MANQUILVO,Terreno de Uso Agricola,Terrenos Agricolas,Terreno de Uso Agricola,,,,,,Region del Maule,Curico,Romeral,,,0,,,-71.0988,-34.9311
2016-2017,CLUB DE POLO,35-106,STA. ELENA HJ. 2 PTE.,Terreno de Uso Agricola,Terrenos Agricolas,Terreno de Uso Agricola,,,,,,Region del Maule,Curico,Romeral,,,0,,,-71.1802,-34.9502
2016-2017,LAS VI?æAS,57-21,GUAICO REQUIMILIN HIJUELA C,Terreno de Uso Agricola,Terrenos Agricolas,Terreno de Uso Agricola,,,,,,Region del Maule,Curico,Romeral,,,0,,,-71.0574,-34.9458
2016-2017,GUAICO CENTRO,58-14,GUAICO SUR,Terreno de Uso Agricola,Terrenos Agricolas,Terreno de Uso Agricola,,,,,,Region del Maule,Curico,Romeral,,,0,,,-71.0500,-34.9828
2016-2017,PUMAIT?ëN,37-60,PC 33 LT B PP MANQUILVO,Terreno de Uso Agricola,Terrenos Agricolas,Terreno de Uso Agricola,,,,,,Region del Maule,Curico,Romeral,,,0,,,-71.1234,-34.9673
2016-2017,RESERVA AL BOLDAL,58-32,LA BALLICA,Bosque Nativo Renoval Semidenso,Bosques,Bosque Nativo,Renoval,Semidenso,< 2,Esclerofilo,Espino,Region del Maule,Curico,Romeral,,,0,,,-71.0339,-34.9992
2016-2017,RESERVA AL BOLDAL,RESERVA,,Terreno de Uso Agricola,Terrenos Agricolas,Terreno de Uso Agricola,,,,,,Region del Maule,Curico,Romeral,,,0,,,-71.0356,-35.0169
2016-2017,LOS MAQUIS,BC,,Rotacion Cultivo-Pradera,Terrenos Agricolas,Rotacion Cultivo-Pradera,,,,,,Region del Maule,Curico,Romeral,,,0,,,-70.8531,-34.9949
2016-2017,LOS QUE?æES,SR,,Matorral Arborescente Semidenso,Praderas y Matorrales,Matorral Arborescente,No Aplica,Semidenso,,,,Region del Maule,Curico,Romeral,,,0,,,-70.8186,-35.0036
2016-2017,LOMA DE LOS BUEYES,SR,,Bosque Nativo Renoval Denso,Bosques,Bosque Nativo,Renoval,Denso,4 - 8,Roble-Raul?â?¡-Coihue,Roble,Region del Maule,Curico,Romeral,,,0,,,-70.9067,-35.0681
2016-2017,FUNDO LA PANCORA,32-42,RESTO LA PANCORA,Matorral Arborescente Semidenso,Praderas y Matorrales,Matorral Arborescente,No Aplica,Semidenso,,,,Region del Maule,Curico,Rauco,,,0,,,-71.4010,-34.9713
2016-2017,PORVENIR,615-9,VILLA EL CARMEN,Terreno de Uso Agricola,Terrenos Agricolas,Terreno de Uso Agricola,,,,,,Region del Maule,Curico,Molina,,,0,,,-71.2759,-35.1552
2016-2017,LA PALMILLA NORTE,23-25,FDO LA ESTANCIA CAM PALMILLA,Bosque Nativo Renoval Abierto,Bosques,Bosque Nativo,Renoval,Abierto,2 - 4,Esclerofilo,Peumo-Quillay-Litre,Region del Maule,Curico,Rauco,,,0,,,-71.3535,-34.8557
2016-2017,LA PALMILLA SUR,23-25,FDO LA ESTANCIA CAM PALMILLA,Bosque Nativo Renoval Abierto,Bosques,Bosque Nativo,Renoval,Abierto,2 - 4,Esclerofilo,Peumo-Quillay-Litre,Region del Maule,Curico,Rauco,,,0,,,-71.3558,-34.8600
2016-2017,LAS PAREDES,8024-174,PARCELA 49 SN FRANCISCO CAMARICO,Bosque Nativo con Exoticas Asilvestradas Semidenso,Bosques,Bosque Mixto,Nativo con Exoticas Asilvestradas,Semidenso,,,,Region del Maule,Talca,San Rafael,,,0,,,-71.4552,-35.2346
2016-2017,LAS PAREDES,8086-88,CAMARICO PARCELA 2,Matorral Arborescente Abierto,Praderas y Matorrales,Matorral Arborescente,No Aplica,Abierto,,,,Region del Maule,Talca,San Rafael,,,0,,,-71.5060,-35.2464
2016-2017,LAS PAREDES,8086-89,CAMARICO PARCELA 3,Plantacion Adulta,Bosques,Plantacion,Adulta,No Aplica,,,,Region del Maule,Talca,San Rafael,,,0,,,-71.5047,-35.2420
2016-2017,LOS JUNCOS,8085-344,PROY PARC EL MILAGRO PARC 2 LOTE B,Bosque Nativo Renoval Semidenso,Bosques,Bosque Nativo,Renoval,Semidenso,< 2,Esclerofilo,Esclerofilo,Region del Maule,Talca,San Rafael,,,0,,,-71.4823,-35.2862
2016-2017,LA PALMILLA,23-1,LA PALMILLA,Terreno de Uso Agricola,Terrenos Agricolas,Terreno de Uso Agricola,,,,,,Region del Maule,Curico,Rauco,,,0,,,-71.3111,-34.8927
2016-2017,LA FAVORITA,629-3,FUNDO YUNGAY MANZANALES,Terreno de Uso Agricola,Terrenos Agricolas,Terreno de Uso Agricola,,,,,,Region del Maule,Curico,Molina,,,0,,,-71.2288,-35.1003
2016-2017,LOS PINOS,RUTA 5,,Matorral Arborescente Semidenso,Praderas y Matorrales,Matorral Arborescente,No Aplica,Semidenso,,,,Region del Maule,Curico,Molina,,,0,,,-71.3825,-35.1623
2016-2017,ITAHUE,RUTA 5,,Terreno de Uso Agricola,Terrenos Agricolas,Terreno de Uso Agricola,,,,,,Region del Maule,Curico,Molina,,,0,,,-71.3742,-35.1509
2016-2017,PICHINGAL,629-22,FUNDO LA ALIANZA,Terreno de Uso Agricola,Terrenos Agricolas,Terreno de Uso Agricola,,,,,,Region del Maule,Curico,Molina,,,0,,,-71.2214,-35.1141
2016-2017,LA PANCORA,32-33,TRICAO,Matorral-Pradera Abierto,Praderas y Matorrales,Matorral-Pradera,No Aplica,Abierto,,,,Region del Maule,Curico,Rauco,,,0,,,-71.3800,-34.9481
2016-2017,TRICAO,34-28,LAS GARZAS,Bosque Nativo Renoval Semidenso,Bosques,Bosque Nativo,Renoval,Semidenso,2 - 4,Esclerofilo,Peumo-Quillay-Litre,Region del Maule,Curico,Rauco,,,0,,,-71.4276,-34.9795
2016-2017,EL GUINDO,32-82,,Terreno de Uso Agricola,Terrenos Agricolas,Terreno de Uso Agricola,,,,,,Region del Maule,Curico,Rauco,,,0,,,-71.3418,-34.9339
2016-2017,PICHINGAL,629-8,STA SOFIA DE YUNGAY,Matorral Abierto,Praderas y Matorrales,Matorral,No Aplica,Abierto,,,,Region del Maule,Curico,Molina,,,0,,,-71.2034,-35.1060
2016-2017,LAS 25,629-21,FUNDO EL NOGAL PICHINGAL,Plantacion Adulta,Bosques,Plantacion,Adulta,No Aplica,,,,Region del Maule,Curico,Molina,,,0,,,-71.1907,-35.1269
2016-2017,EL NOGAL,629-21,FUNDO EL NOGAL PICHINGAL,Plantacion Adulta,Bosques,Plantacion,Adulta,No Aplica,,,,Region del Maule,Curico,Molina,,,0,,,-71.1956,-35.1147
2016-2017,PICHINGAL,629-21,FUNDO EL NOGAL PICHINGAL,Plantacion Adulta,Bosques,Plantacion,Adulta,No Aplica,,,,Region del Maule,Curico,Molina,,,0,,,-71.1963,-35.1156
2016-2017,LAS 25,636-2,SANTA ANA,Plantacion Adulta,Bosques,Plantacion,Adulta,No Aplica,,,,Region del Maule,Curico,Molina,,,0,,,-71.1895,-35.1371
2016-2017,SANTA MARCELA,636-2,SANTA ANA,Plantacion Joven o Recien Cosechada,Bosques,Plantacion,Joven o Recien Cosechada,No Aplica,,,,Region del Maule,Curico,Molina,,,0,,,-71.1842,-35.1341
2016-2017,LAS 25,634-9,CORCOLEN PC 3,Terreno de Uso Agricola,Terrenos Agricolas,Terreno de Uso Agricola,,,,,,Region del Maule,Curico,Molina,,,0,,,-71.2012,-35.1397
2016-2017,ITAHUE,RV-29,,Ciudades. Pueblos. Zonas Industriales,Areas Urbanas e Industriales,Ciudades. Pueblos. Zonas Industriales,,,,,,Region del Maule,Curico,Molina,,,0,,,-71.3603,-35.1383
2016-2017,LOMA BLANCA,639-37,PC 29 PP BUENA FE ORIENTE,Matorral Arborescente Abierto,Praderas y Matorrales,Matorral Arborescente,No Aplica,Abierto,,,,Region del Maule,Curico,Molina,,,0,,,-71.2071,-35.1804
2016-2017,EL YACAL,641-35,PROYECTO PARCELACION QLUPEHUE PARCELA 4,Terreno de Uso Agricola,Terrenos Agricolas,Terreno de Uso Agricola,,,,,,Region del Maule,Curico,Molina,,,0,,,-71.1235,-35.1900
2016-2017,LOS CANALES,RIO LONTUE,,Cajas de Rios,Areas Desprovistas de Vegetaci?â,Cajas de Rios,,,,,,Region del Maule,Curico,Molina,,,0,,,-71.2342,-35.0506
2016-2017,PASO ANCHO,SR,,Matorral Arborescente Abierto,Praderas y Matorrales,Matorral Arborescente,No Aplica,Abierto,,,,Region del Maule,Talca,R?â?¡o Claro,,,0,,,-71.3401,-35.1960
2016-2017,PASO ANCHO,24-122,VIENA PC 24,Matorral Arborescente Abierto,Praderas y Matorrales,Matorral Arborescente,No Aplica,Abierto,,,,Region del Maule,Talca,R?â?¡o Claro,,,0,,,-71.3549,-35.1961
2016-2017,PASO ANCHO,SR,,Rotacion Cultivo-Pradera,Terrenos Agricolas,Rotacion Cultivo-Pradera,,,,,,Region del Maule,Talca,R?â?¡o Claro,,,0,,,-71.3233,-35.1727
2016-2017,PASO ANCHO,25-33,BELLAVISTA,Plantacion Joven o Recien Cosechada,Bosques,Plantacion,Joven o Recien Cosechada,No Aplica,,,,Region del Maule,Talca,R?â?¡o Claro,,,0,,,-71.3283,-35.1731
2016-2017,VILLA LOS ROBLES,24-11,LA CONSTANCIA VILLA LOS ROBLES,Terreno de Uso Agricola,Terrenos Agricolas,Terreno de Uso Agricola,,,,,,Region del Maule,Talca,R?â?¡o Claro,,,0,,,-71.3565,-35.2252
2016-2017,PALERMO,25-292,FUNDO SAN JORGE LOTE A 1 A 2 A 3,Matorral Arborescente Abierto,Praderas y Matorrales,Matorral Arborescente,No Aplica,Abierto,,,,Region del Maule,Talca,R?â?¡o Claro,,,0,,,-71.3953,-35.1975
2016-2017,HIJ. SAN FRANSISCO-TERRA,25-185,SAN FRANCISCO LT A,Plantacion Adulta,Bosques,Plantacion,Adulta,No Aplica,,,,Region del Maule,Talca,R?â?¡o Claro,,,0,,,-71.3314,-35.1683
2016-2017,SAN FRANCISCO,25-82,PORVENIR PC 48,Rotacion Cultivo-Pradera,Terrenos Agricolas,Rotacion Cultivo-Pradera,,,,,,Region del Maule,Talca,R?â?¡o Claro,,,0,,,-71.3235,-35.1714
2016-2017,CAMARICO  2,25-8,HIJUELA N 2,Matorral Arborescente Semidenso,Praderas y Matorrales,Matorral Arborescente,No Aplica,Semidenso,,,,Region del Maule,Talca,R?â?¡o Claro,,,0,,,-71.3800,-35.1761
2016-2017,LOS ROBLES,24-5,LOS ROBLES,Bosque Nativo Renoval Semidenso,Bosques,Bosque Nativo,Renoval,Semidenso,< 2,Esclerofilo,Peumo-Quillay-Litre,Region del Maule,Talca,R?â?¡o Claro,,,0,,,-71.3668,-35.2111
2016-2017,LOS ROBLES,24-31,VILLA MERCEDES,Terreno de Uso Agricola,Terrenos Agricolas,Terreno de Uso Agricola,,,,,,Region del Maule,Talca,R?â?¡o Claro,,,0,,,-71.3692,-35.2208
2016-2017,MONTE OSCURO (AMENAZA),21-662,P P RIO CLARO PC 2 LT 1,Rotacion Cultivo-Pradera,Terrenos Agricolas,Rotacion Cultivo-Pradera,,,,,,Region del Maule,Talca,R?â?¡o Claro,,,0,,,-71.2111,-35.2511
2016-2017,BUENA PAZ,25-120,FRUTILLAR HJ SUR RSVA A,Plantacion Joven o Recien Cosechada,Bosques,Plantacion,Joven o Recien Cosechada,No Aplica,,,,Region del Maule,Talca,R?â?¡o Claro,,,0,,,-71.3555,-35.1845
2016-2017,CAMARICO,25-293,FUNDO SAN JORGELOTEB,Matorral Arborescente Abierto,Praderas y Matorrales,Matorral Arborescente,No Aplica,Abierto,,,,Region del Maule,Talca,R?â?¡o Claro,,,0,,,-71.3953,-35.1886
2016-2017,PASO ANCHO // SAN CAMILO,24-284,VIENA PC 42 PARTE,Terreno de Uso Agricola,Terrenos Agricolas,Terreno de Uso Agricola,,,,,,Region del Maule,Talca,R?â?¡o Claro,,,0,,,-71.3316,-35.1962
2016-2017,LA OBRA // CHICA ESTANCIA,22-35,FUNDO LA OBRA,Terreno de Uso Agricola,Terrenos Agricolas,Terreno de Uso Agricola,,,,,,Region del Maule,Talca,R?â?¡o Claro,,,0,,,-71.3303,-35.3011
2016-2017,LOS ROBLES,22-25,TRES ALAMOS,Plantacion Adulta,Bosques,Plantacion,Adulta,No Aplica,,,,Region del Maule,Talca,R?â?¡o Claro,,,0,,,-71.3841,-35.2391
2016-2017,SAN ANTONIO,22-25,TRES ALAMOS,Terreno de Uso Agricola,Terrenos Agricolas,Terreno de Uso Agricola,,,,,,Region del Maule,Talca,R?â?¡o Claro,,,0,,,-71.3752,-35.2350
2016-2017,FUNDO SAN ANTONIO,22-25,TRES ALAMOS,Terreno de Uso Agricola,Terrenos Agricolas,Terreno de Uso Agricola,,,,,,Region del Maule,Talca,R?â?¡o Claro,,,0,,,-71.3778,-35.2394
2016-2017,ODESA,21-140,RIO CLARO PC 14,Terreno de Uso Agricola,Terrenos Agricolas,Terreno de Uso Agricola,,,,,,Region del Maule,Talca,R?â?¡o Claro,,,0,,,-71.2439,-35.2311
2016-2017,SN GERARDO PC.62 Y 63,27-143,SN GERARDO PC 64,Terreno de Uso Agricola,Terrenos Agricolas,Terreno de Uso Agricola,,,,,,Region del Maule,Talca,R?â?¡o Claro,,,0,,,-71.2125,-35.2316
2016-2017,FUNDO SAN ANTONIO,22-176,STA AGUEDA PC 16,Terreno de Uso Agricola,Terrenos Agricolas,Terreno de Uso Agricola,,,,,,Region del Maule,Talca,R?â?¡o Claro,,,0,,,-71.3258,-35.2286
2016-2017,LOS ROBLES,22-114,LOS MONTES DE SAN SEBASTIAN,Terreno de Uso Agricola,Terrenos Agricolas,Terreno de Uso Agricola,,,,,,Region del Maule,Talca,R?â?¡o Claro,,,0,,,-71.3459,-35.2298
2016-2017,SAN ANTONIO,22-114,LOS MONTES DE SAN SEBASTIAN,Terreno de Uso Agricola,Terrenos Agricolas,Terreno de Uso Agricola,,,,,,Region del Maule,Talca,R?â?¡o Claro,,,0,,,-71.3503,-35.2312
2016-2017,FUNDO SAN ANTONIO,22-114,LOS MONTES DE SAN SEBASTIAN,Terreno de Uso Agricola,Terrenos Agricolas,Terreno de Uso Agricola,,,,,,Region del Maule,Talca,R?â?¡o Claro,,,0,,,-71.3519,-35.2385
2016-2017,LOS ROBLES,23-10,FUNDO SAN ANTONIO,Plantacion Adulta,Bosques,Plantacion,Adulta,No Aplica,,,,Region del Maule,Talca,R?â?¡o Claro,,,0,,,-71.3606,-35.2337
2016-2017,LOS ROBLES,23-10,FUNDO SAN ANTONIO,Plantacion Adulta,Bosques,Plantacion,Adulta,No Aplica,,,,Region del Maule,Talca,R?â?¡o Claro,,,0,,,-71.3949,-35.2342
2016-2017,LOS ROBLES,23-10,FUNDO SAN ANTONIO,Terreno de Uso Agricola,Terrenos Agricolas,Terreno de Uso Agricola,,,,,,Region del Maule,Talca,R?â?¡o Claro,,,0,,,-71.3847,-35.2322
2016-2017,LOS ROBLES,23-10,FUNDO SAN ANTONIO,Terreno de Uso Agricola,Terrenos Agricolas,Terreno de Uso Agricola,,,,,,Region del Maule,Talca,R?â?¡o Claro,,,0,,,-71.3635,-35.2329
2016-2017,FUNDO SAN ANTONIO,23-10,FUNDO SAN ANTONIO,Terreno de Uso Agricola,Terrenos Agricolas,Terreno de Uso Agricola,,,,,,Region del Maule,Talca,R?â?¡o Claro,,,0,,,-71.3864,-35.2344
2016-2017,MONTE OSCURO 2,21-509,SANTA SOFIA LT 1 A,Rotacion Cultivo-Pradera,Terrenos Agricolas,Rotacion Cultivo-Pradera,,,,,,Region del Maule,Talca,R?â?¡o Claro,,,0,,,-71.2150,-35.2478
2016-2017,PASO ANCHO II,22-229,EL MAQUI LT A,Matorral Arborescente Semidenso,Praderas y Matorrales,Matorral Arborescente,No Aplica,Semidenso,,,,Region del Maule,Talca,R?â?¡o Claro,,,0,,,-71.3397,-35.2491
2016-2017,CUMPEO,21-356,SN ENRIQUE PC 16,Matorral Semidenso,Praderas y Matorrales,Matorral,No Aplica,Semidenso,,,,Region del Maule,Talca,R?â?¡o Claro,,,0,,,-71.2629,-35.2786
2016-2017,CASAS VIEJAS TAGLE,136-5,CASAS VIEJAS RES CORA 2,Plantacion Joven o Recien Cosechada,Bosques,Plantacion,Joven o Recien Cosechada,No Aplica,,,,Region del Maule,Talca,R?â?¡o Claro,,,0,,,-71.2147,-35.2831
2016-2017,EL GUINDO,22-70,FUNDO STA TERESA KM ( 9 CAMINOO ),Terreno de Uso Agricola,Terrenos Agricolas,Terreno de Uso Agricola,,,,,,Region del Maule,Talca,R?â?¡o Claro,,,0,,,-71.3459,-35.2639
2016-2017,HUERTA SANTA LUCIA,21-267,PARCELA 16 LOS CERRILLOS,Plantacion Joven o Recien Cosechada,Bosques,Plantacion,Joven o Recien Cosechada,No Aplica,,,,Region del Maule,Talca,R?â?¡o Claro,,,0,,,-71.3081,-35.2861
2016-2017,LA VEGUILLA,SR,,Bosque Nativo Renoval Denso,Bosques,Bosque Nativo,Renoval,Denso,< 2,Esclerofilo,Peumo-Quillay-Litre,Region del Maule,Talca,R?â?¡o Claro,,,0,,,-71.0778,-35.4117
2016-2017,ZAPALLAR,537-2,,Terreno de Uso Agricola,Terrenos Agricolas,Terreno de Uso Agricola,,,,,,Region del Maule,Curico,Curico,,,0,,,-71.2247,-34.9961
2016-2017,LO VALDIVIA,124-19,EL CARMEN,Plantacion con Exoticas Asilvestradas,Bosques,Plantacion,con Exoticas Asilvestradas,No Aplica,,,,Region del Maule,Curico,Sagrada Familia,,,0,,,-71.3399,-34.9897
2016-2017,FUNDO COL?ìN,141-19,COLIN Y LA CAMPANA,Matorral Denso,Praderas y Matorrales,Matorral,No Aplica,Denso,,,,Region del Maule,Curico,Sagrada Familia,,,0,,,-71.3941,-35.0143
2016-2017,LONTUE,624-27,LT A 2 HJ 2 E HJ 3 FDO LA FORTUNA,Terreno de Uso Agricola,Terrenos Agricolas,Terreno de Uso Agricola,,,,,,Region del Maule,Curico,Sagrada Familia,,,0,,,-71.2814,-35.0489
2016-2017,SANTA EMILIA,141-1,LA ISLA DE RIO,Plantacion con Exoticas Asilvestradas,Bosques,Plantacion,con Exoticas Asilvestradas,No Aplica,,,,Region del Maule,Curico,Sagrada Familia,,,0,,,-71.4904,-35.0385
2016-2017,SANATORIO,129-6,FDO. EL SANATORIO ( SECTOR PULMUDON,Terreno de Uso Agricola,Terrenos Agricolas,Terreno de Uso Agricola,,,,,,Region del Maule,Curico,Sagrada Familia,,,0,,,-71.3253,-35.0496
2016-2017,RINC?ôN DE MELLADO,140-91,PROYECTO LAUTARO PARCELA 18,Terreno de Uso Agricola,Terrenos Agricolas,Terreno de Uso Agricola,,,,,,Region del Maule,Curico,Sagrada Familia,,,0,,,-71.4846,-35.0721
2016-2017,LO VALDIVIA,SR,,Plantacion con Exoticas Asilvestradas,Bosques,Plantacion,con Exoticas Asilvestradas,No Aplica,,,,Region del Maule,Curico,Sagrada Familia,,,0,,,-71.3435,-34.9892
2016-2017,LO VALDIVIA,SR,,Plantacion con Exoticas Asilvestradas,Bosques,Plantacion,con Exoticas Asilvestradas,No Aplica,,,,Region del Maule,Curico,Sagrada Familia,,,0,,,-71.3433,-34.9900
2016-2017,EL ALMENDRO,561-12,AVENIDA EL ALMENDRO SN,Terreno de Uso Agricola,Terrenos Agricolas,Terreno de Uso Agricola,,,,,,Region del Maule,Linares,Linares,,,0,,,-71.5843,-35.8619
2016-2017,CRUCE PANIMAVIDA,540-3,SN MANUEL RTO LT 2 DEL LT 2 DE LA PC 4,Terreno de Uso Agricola,Terrenos Agricolas,Terreno de Uso Agricola,,,,,,Region del Maule,Linares,Linares,,,0,,,-71.5739,-35.8314
2016-2017,EL HUAPI,562-47,,Terreno de Uso Agricola,Terrenos Agricolas,Terreno de Uso Agricola,,,,,,Region del Maule,Linares,Linares,,,0,,,-71.5893,-35.8710
2016-2017,PUTAG?üN,VP-S,,Terreno de Uso Agricola,Terrenos Agricolas,Terreno de Uso Agricola,,,,,,Region del Maule,Linares,Linares,,,0,,,-71.6659,-35.7831
2016-2017,SAN MANUEL HIJUELA 5,1254-31,VILLA BAVIERA PC 6,Terreno de Uso Agricola,Terrenos Agricolas,Terreno de Uso Agricola,,,,,,Region del Maule,Linares,Parral,,,0,,,-71.5817,-36.3903
2016-2017,QUI?æE,508-9,FUNDO EL QUINE,Plantacion con Exoticas Asilvestradas,Bosques,Plantacion,con Exoticas Asilvestradas,No Aplica,,,,Region del Maule,Linares,Longavi,,,0,,,-71.5561,-35.9109
2016-2017,FUNDO EL QUI?æE,508-9,FUNDO EL QUINE,Plantacion con Exoticas Asilvestradas,Bosques,Plantacion,con Exoticas Asilvestradas,No Aplica,,,,Region del Maule,Linares,Longavi,,,0,,,-71.5618,-35.9137
2016-2017,PAIHUEN,206-72,PARCELA 26 EX FUNDO PAIHUEN,Rotacion Cultivo-Pradera,Terrenos Agricolas,Rotacion Cultivo-Pradera,,,,,,Region del Maule,Linares,Longavi,,,0,,,-71.6753,-36.0623
2016-2017,EL ARBOLILLO,VP-L,,Matorral Semidenso,Praderas y Matorrales,Matorral,No Aplica,Semidenso,,,,Region del Maule,Linares,San Javier,,,0,,,-72.0506,-35.7536
2016-2017,VARA GRUESA,549-44,SANTA CLARA,Terreno de Uso Agricola,Terrenos Agricolas,Terreno de Uso Agricola,,,,,,Region del Maule,Linares,Linares,,,0,,,-71.5152,-35.8444
2016-2017,EL PARRON,559-4,LOS GUINDOS,Terreno de Uso Agricola,Terrenos Agricolas,Terreno de Uso Agricola,,,,,,Region del Maule,Linares,Linares,,,0,,,-71.5351,-35.8903
2016-2017,PUENTE PUTAGAN,L-11,,Plantacion con Exoticas Asilvestradas,Bosques,Plantacion,con Exoticas Asilvestradas,No Aplica,,,,Region del Maule,Linares,Colbun,,,0,,,-71.4727,-35.8233
2016-2017,EL MEDANO,SR,,Matorral-Pradera Abierto,Praderas y Matorrales,Matorral-Pradera,No Aplica,Abierto,,,,Region del Maule,Talca,San Clemente,,,0,,,-70.6994,-35.8353
2016-2017,LOS ?üLAMOS,SR,,Matorral Abierto,Praderas y Matorrales,Matorral,No Aplica,Abierto,,,,Region del Maule,Talca,San Clemente,,,0,,,-70.8221,-35.8167
2016-2017,LAS TABLAS HIJ 1 2 3  PROPIO (CORR 90),SR,,Plantacion Joven o Recien Cosechada,Bosques,Plantacion,Joven o Recien Cosechada,No Aplica,,,,Region del Maule,Linares,Parral,,,0,,,-71.5406,-36.3200
2016-2017,CABA?æAS DE REMULCAO,SR,,Plantacion Joven o Recien Cosechada,Bosques,Plantacion,Joven o Recien Cosechada,No Aplica,,,,Region del Maule,Linares,Parral,,,0,,,-71.5064,-36.3000
2016-2017,LAGUNILLAS,VP-H,,Plantacion Adulta,Bosques,Plantacion,Adulta,No Aplica,,,,Region del Maule,Linares,Longavi,,,0,,,-71.4269,-36.1872
2016-2017,LAGUNILLAS,VP-H,,Plantacion Adulta,Bosques,Plantacion,Adulta,No Aplica,,,,Region del Maule,Linares,Longavi,,,0,,,-71.4319,-36.1894
2016-2017,EL CHACAY 3 AMENAZA (CORR 83),VP-H,,Plantacion Adulta,Bosques,Plantacion,Adulta,No Aplica,,,,Region del Maule,Linares,Longavi,,,0,,,-71.4286,-36.1872
2016-2017,CHACAY 3  PROPIO (CORR 84),VP-H,,Plantacion Adulta,Bosques,Plantacion,Adulta,No Aplica,,,,Region del Maule,Linares,Longavi,,,0,,,-71.4217,-36.1861
2016-2017,CHACAY 3  AMENAZA (CORR 38),VP-H,,Bosque Nativo Renoval Semidenso,Bosques,Bosque Nativo,Renoval,Semidenso,12 - 20,Roble-Raul?â?¡-Coihue,Roble,Region del Maule,Linares,Longavi,,,0,,,-71.4031,-36.1983
2016-2017,CHACAY 3 AMENAZA (CORR 39),VP-H,,Bosque Nativo Renoval Semidenso,Bosques,Bosque Nativo,Renoval,Semidenso,12 - 20,Roble-Raul?â?¡-Coihue,Roble,Region del Maule,Linares,Longavi,,,0,,,-71.4025,-36.1975
2016-2017,CHACAY 3 PROPIO (CORR 81),VP-H,,Bosque Nativo Renoval Semidenso,Bosques,Bosque Nativo,Renoval,Semidenso,12 - 20,Roble-Raul?â?¡-Coihue,Roble,Region del Maule,Linares,Longavi,,,0,,,-71.4206,-36.1736
2016-2017,EL BOLDO,b,,Bosque Nativo Renoval Denso,Bosques,Bosque Nativo,Renoval,Denso,4 - 8,Roble-Hualo,Roble-Hualo,Region del Maule,Linares,Colbun,,,0,,,-71.2506,-35.7347
2016-2017,CHEQU?ëN,RIO MAULE,,Matorral Arborescente Abierto,Praderas y Matorrales,Matorral Arborescente,No Aplica,Abierto,,,,Region del Maule,Talca,San Clemente,,,0,,,-71.5644,-35.5865
2016-2017,TRAFALGAR,176-93,HIJUELA A FUNDO TRAFALGAR,Plantacion con Exoticas Asilvestradas,Bosques,Plantacion,con Exoticas Asilvestradas,No Aplica,,,,Region del Maule,Talca,San Clemente,,,0,,,-71.5397,-35.5711
2016-2017,CRUCE ESPERANZA,158-7,MIRAFLORES,Terreno de Uso Agricola,Terrenos Agricolas,Terreno de Uso Agricola,,,,,,Region del Maule,Linares,Yerbas Buenas,,,0,,,-71.6049,-35.6966
2016-2017,SANTA MAR?ìA DE ARQU?ëN,165-35,STA MARIA DE ARQUEN,Terreno de Uso Agricola,Terrenos Agricolas,Terreno de Uso Agricola,,,,,,Region del Maule,Linares,Yerbas Buenas,,,0,,,-71.5334,-35.6499
2016-2017,QUILIPIN,159-68,,Terreno de Uso Agricola,Terrenos Agricolas,Terreno de Uso Agricola,,,,,,Region del Maule,Linares,Yerbas Buenas,,,0,,,-71.5916,-35.7228
2016-2017,PALQUIBUDI,RIO MATAQUITO,,Plantacion con Exoticas Asilvestradas,Bosques,Plantacion,con Exoticas Asilvestradas,No Aplica,,,,Region del Maule,Curico,Sagrada Familia,,,0,,,-71.5813,-35.0496
2016-2017,LOS COPIHUES PROPIO (CORR 41),VP-HHH,,Plantacion Adulta,Bosques,Plantacion,Adulta,No Aplica,,,,Region del Maule,Cauquenes,Chanco,,,0,,,-72.3967,-35.6897
2016-2017,RINCON DE LOBOS,203-1,EL OLIVO,Terreno de Uso Agricola,Terrenos Agricolas,Terreno de Uso Agricola,,,,,,Region del Maule,Linares,Villa Alegre,,,0,,,-71.7631,-35.6722
2016-2017,PARCELA MUNICIPAL,3706-114,LA HIGUERA PC 16 LT 2,Rotacion Cultivo-Pradera,Terrenos Agricolas,Rotacion Cultivo-Pradera,,,,,,Region del Maule,Talca,Talca,,,0,,,-71.6391,-35.3942
2016-2017,CIRCUNVALACION NORTE,3706-47,LA HIGUERA PC 16 LT 1,Rotacion Cultivo-Pradera,Terrenos Agricolas,Rotacion Cultivo-Pradera,,,,,,Region del Maule,Talca,Talca,,,0,,,-71.6413,-35.3975
2016-2017,CANAL DE LA LUZ,3706-47,LA HIGUERA PC 16 LT 1,Rotacion Cultivo-Pradera,Terrenos Agricolas,Rotacion Cultivo-Pradera,,,,,,Region del Maule,Talca,Talca,,,0,,,-71.6418,-35.3986
2016-2017,CALLEJ?ôN EL CRISTO,233-45,PARC N 11 BELLA UNION,Terreno de Uso Agricola,Terrenos Agricolas,Terreno de Uso Agricola,,,,,,Region del Maule,Linares,Villa Alegre,,,0,,,-71.6129,-35.6739
2016-2017,PE?æUELAS,229-17,FUNDO APENITAS VILLA ALEGRE,Terreno de Uso Agricola,Terrenos Agricolas,Terreno de Uso Agricola,,,,,,Region del Maule,Linares,Villa Alegre,,,0,,,-71.5804,-35.6631
2016-2017,SAN ANTONIO,3723-237,,Rotacion Cultivo-Pradera,Terrenos Agricolas,Rotacion Cultivo-Pradera,,,,,,Region del Maule,Talca,Talca,,,0,,,-71.6067,-35.4725
2016-2017,PADRE HURTADO,TALCA,,Rotacion Cultivo-Pradera,Terrenos Agricolas,Rotacion Cultivo-Pradera,,,,,,Region del Maule,Talca,Talca,,,0,,,-71.6577,-35.3999
2016-2017,21 DE MAYO,3706-102,PROSPERIDAD PC 6 LT A,Rotacion Cultivo-Pradera,Terrenos Agricolas,Rotacion Cultivo-Pradera,,,,,,Region del Maule,Talca,Talca,,,0,,,-71.6456,-35.3916
2016-2017,DO?æA JACINTA,3706-62,PARCELA 1 DE LA PROSPERIDAD TALCA,Rotacion Cultivo-Pradera,Terrenos Agricolas,Rotacion Cultivo-Pradera,,,,,,Region del Maule,Talca,Talca,,,0,,,-71.6545,-35.3951
2016-2017,DO?æA JACINTA,3706-62,PARCELA 1 DE LA PROSPERIDAD TALCA,Rotacion Cultivo-Pradera,Terrenos Agricolas,Rotacion Cultivo-Pradera,,,,,,Region del Maule,Talca,Talca,,,0,,,-71.6568,-35.3929
2016-2017,COUNTRY CLUB,3709-2,,Rotacion Cultivo-Pradera,Terrenos Agricolas,Rotacion Cultivo-Pradera,,,,,,Region del Maule,Talca,Talca,,,0,,,-71.6209,-35.4218
2016-2017,SAN ANTONIO,3724-18,SANTA MARGARITA PALMIRA,Rotacion Cultivo-Pradera,Terrenos Agricolas,Rotacion Cultivo-Pradera,,,,,,Region del Maule,Talca,Talca,,,0,,,-71.5968,-35.5006
2016-2017,LA OBRA,3720-383,FDO LA OBRA HIJ 2 PTE 0,Rotacion Cultivo-Pradera,Terrenos Agricolas,Rotacion Cultivo-Pradera,,,,,,Region del Maule,Talca,Talca,,,0,,,-71.5841,-35.4560
2016-2017,3 PUERTAS,3720-81,SAN MIGUEL PC 7,Rotacion Cultivo-Pradera,Terrenos Agricolas,Rotacion Cultivo-Pradera,,,,,,Region del Maule,Talca,Talca,,,0,,,-71.6168,-35.4577
